id,bank,city,state,date,date_numbers,acquired_by,assets_mil,cartodb_id,created_at,updated_at,cartodb_georef_status,longitude,latitude,geojson
1,IndyMac,Pasadena,California,1215734400000,20080711,"OneWest Bank, FSB",32000,2,1357420806903,1357420841713,1,-118.14427,34.14745,"{""type"":""Point"",""coordinates"":[-118.14427,34.14745]}"
2,Franklin Bank,Houston,Texas,1226016000000,20081107,Prosperity Bank,5100,4,1357420806903,1357420843903,1,-95.36978,29.76045,"{""type"":""Point"",""coordinates"":[-95.36978,29.76045]}"
3,PFF Bank and Trust,Pomona,California,1227225600000,20081121,"U.S. Bank, N.A.",3700,5,1357420806903,1357420844742,1,-117.75003,34.05483,"{""type"":""Point"",""coordinates"":[-117.75003,34.05483]}"
4,ANB Financial NA,Bentonville,Arkansas,1210291200000,20080509,Pulaski Bank and Trust Company,2100,7,1357420806903,1357420846476,1,-94.20962,36.37232,"{""type"":""Point"",""coordinates"":[-94.20962,36.37232]}"
5,Silver State Bank,Henderson,Nevada,1220572800000,20080905,Nevada State Bank,2000,8,1357420806903,1357420847480,1,-114.98109,36.03082,"{""type"":""Point"",""coordinates"":[-114.98109,36.03082]}"
6,The Columbian Bank and Trust Company,Topeka,Kansas,1219363200000,20080822,Citizens Bank and Trust,752,10,1357420806903,1357420849037,1,-95.67118,39.04928,"{""type"":""Point"",""coordinates"":[-95.67118,39.04928]}"
7,The Community Bank,Loganville,Georgia,1227225600000,20081121,Bank of Essex,681,11,1357420806903,1357420849815,1,-83.90252,33.83807,"{""type"":""Point"",""coordinates"":[-83.90252,33.83807]}"
8,Security Pacific Bank,Los Angeles,California,1226016000000,20081107,Pacific Western Bank,561.1,13,1357420806903,1357420851511,1,-118.24532,34.05349,"{""type"":""Point"",""coordinates"":[-118.24532,34.05349]}"
9,Alpha Bank & Trust,Alpharetta,Georgia,1224806400000,20081024,"Stearns Bank, N.A.",354.1,14,1357420806903,1357420852636,1,-84.29455,34.07537,"{""type"":""Point"",""coordinates"":[-84.29455,34.07537]}"
10,First Priority Bank,Bradenton,Florida,1217548800000,20080801,SunTrust Bank,259,16,1357420806903,1357420855919,1,-82.57807,27.4955,"{""type"":""Point"",""coordinates"":[-82.57807,27.4955]}"
11,First Georgia Community Bank,Jackson,Georgia,1228435200000,20081205,United Bank,237.5,18,1357420806903,1357420857760,1,-83966,33.2944,"{""type"":""Point"",""coordinates"":[-83.966,33.2944]}"
12,Ameribank,Northfork,West Virginia,1221782400000,20080919,The Citizens Savings Bank,113,19,1357420806903,1357420858549,1,-81.42968,37.41434,"{""type"":""Point"",""coordinates"":[-81.42968,37.41434]}"
13,Main Street Bank,Northville,Michigan,1223596800000,20081010,Monroe Bank and Trust,98,20,1357420806903,1357420859185,1,-83.48519,42.43097,"{""type"":""Point"",""coordinates"":[-83.48519,42.43097]}"
14,"First Integrity Bank, NA",Staples,Minnesota,1212105600000,20080530,First International Bank and Trust,54.7,22,1357420806903,1357420860889,1,-94.7942,46.35565,"{""type"":""Point"",""coordinates"":[-94.7942,46.35565]}"
15,Sanderson State Bank,Sanderson,Texas,1229040000000,20081212,The Pecos County State Bank,37,24,1357420806903,1357420862437,1,-102.40415,30.14342,"{""type"":""Point"",""coordinates"":[-102.40415,30.14342]}"
16,Hume Bank,Hume,Missouri,1204848000000,20080307,Security Bank,18.7,25,1357420806903,1357420863153,1,-94.58322,38.09004,"{""type"":""Point"",""coordinates"":[-94.58322,38.09004]}"
17,AmTrust Bank,Cleveland,Ohio,1259884800000,20091204,New York Community Bank,12000,29,1357420806903,1357420868042,1,-81.69072,41.50475,"{""type"":""Point"",""coordinates"":[-81.69072,41.50475]}"
18,United Commercial Bank,San Francisco,California,1257465600000,20091106,East West Bank,11200,30,1357420806903,1357420869072,1,-122.41964,37.77712,"{""type"":""Point"",""coordinates"":[-122.41964,37.77712]}"
19,Corus Bank,Chicago,Illinois,1252627200000,20090911,"MB Financial Bank, N.A.",7000,32,1357420806903,1357420871190,1,-87.63241,41.88415,"{""type"":""Point"",""coordinates"":[-87.63241,41.88415]}"
20,Park National Bank,Chicago,Illinois,1256860800000,20091030,"U.S. Bank, N.A.",4700,34,1357420806903,1357420872805,1,-87.63241,41.88415,"{""type"":""Point"",""coordinates"":[-87.63241,41.88415]}"
21,"Silverton Bank, NA",Atlanta,Georgia,1241136000000,20090501,None (insured depositors paid directly),4100,35,1357420806903,1357420873529,1,-84.39111,33.74831,"{""type"":""Point"",""coordinates"":[-84.39111,33.74831]}"
22,Imperial Capital Bank,La Jolla,California,1261094400000,20091218,City National Bank,4000,36,1357420806903,1357420874233,1,-117.87405,33.85811,"{""type"":""Point"",""coordinates"":[-117.87405,33.85811]}"
23,Orion Bank,Naples,Florida,1258070400000,20091113,IBERIABANK,2700,39,1357420806903,1357420878551,1,-81.79579,26.13909,"{""type"":""Point"",""coordinates"":[-81.79579,26.13909]}"
24,Pacific National Bank,San Francisco,California,1256860800000,20091030,"U.S. Bank, N.A.",2300,40,1357420806903,1357420879507,1,-122.41964,37.77712,"{""type"":""Point"",""coordinates"":[-122.41964,37.77712]}"
25,Georgian Bank,Atlanta,Georgia,1253836800000,20090925,First Citizens Bank and Trust Company,2000,42,1357420806903,1357420881781,1,-84.39111,33.74831,"{""type"":""Point"",""coordinates"":[-84.39111,33.74831]}"
26,Vineyard Bank,Rancho Cucamonga,California,1247788800000,20090717,California Bank and Trust,1900,43,1357420806903,1357420882636,1,-117.57384,34.10261,"{""type"":""Point"",""coordinates"":[-117.57384,34.10261]}"
27,County Bank,Merced,California,1233878400000,20090206,Westamerica Bank,1700,45,1357420806903,1357420884779,1,-120.4862,37.30127,"{""type"":""Point"",""coordinates"":[-120.4862,37.30127]}"
28,Mutual Bank,Harvey,Illinois,1248998400000,20090731,United Central Bank,1600,46,1357420806903,1357420885704,1,-87.64458,41.61083,"{""type"":""Point"",""coordinates"":[-87.64458,41.61083]}"
29,Temecula Valley Bank,Temecula,California,1247788800000,20090717,First-Citizens Bank and Trust Company,1500,48,1357420806903,1357420887134,1,-117.16693,33.50248,"{""type"":""Point"",""coordinates"":[-117.16693,33.50248]}"
30,New South Federal Savings Bank,Irondale,Alabama,1261094400000,20091218,Beal Bank,1500,49,1357420806903,1357420887968,1,-86.70672,33.53794,"{""type"":""Point"",""coordinates"":[-86.70672,33.53794]}"
31,Security Bank of Bibb County,Macon,Georgia,1248393600000,20090724,State Bank and Trust Company,1200,50,1357420806903,1357420889259,1,-83.62758,32.83968,"{""type"":""Point"",""coordinates"":[-83.62758,32.83968]}"
32,Affinity Bank,Ventura,California,1251417600000,20090828,Pacific Western Bank,1000,52,1357420806903,1357420891518,1,-119.29232,34.28082,"{""type"":""Point"",""coordinates"":[-119.29232,34.28082]}"
33,Cooperative Bank,Wilmington,North Carolina,1245369600000,20090619,First Bank,970,53,1357420806903,1357420892503,1,-77.94599,34.23497,"{""type"":""Point"",""coordinates"":[-77.94599,34.23497]}"
34,Founders Bank,Worth,Illinois,1246492800000,20090702,The PrivateBank and Trust Company,963,55,1357420806903,1357420894431,1,-87.79548,41.69002,"{""type"":""Point"",""coordinates"":[-87.79548,41.69002]}"
35,Omni National Bank,Atlanta,Georgia,1238112000000,20090327,SunTrust Bank,956,56,1357420806903,1357420895145,1,-84.39111,33.74831,"{""type"":""Point"",""coordinates"":[-84.39111,33.74831]}"
36,First Coweta Bank,Newnan,Georgia,1250812800000,20090821,United Bank,167,119,1357420806903,1357420950443,1,-84.80047,33.37485,"{""type"":""Point"",""coordinates"":[-84.80047,33.37485]}"
37,BankEast,Knoxville,Tennessee,1327622400000,20120127,U.S. Bancorp,272.6,424,1357420806903,1357421230842,1,-83.92091,35.96049,"{""type"":""Point"",""coordinates"":[-83.92091,35.96049]}"
38,San Joaquin Bank,Bakersfield,California,1255651200000,20091016,Citizens Business Bank,775,59,1357420806903,1357420897743,1,-119.01886,35.36696,"{""type"":""Point"",""coordinates"":[-119.01886,35.36696]}"
39,"Century Bank, F.S.B.",Sarasota,Florida,1258070400000,20091113,IBERIABANK,728,60,1357420806903,1357420898309,1,-82.53963,27.33888,"{""type"":""Point"",""coordinates"":[-82.53963,27.33888]}"
40,"TeamBank, NA",Paola,Kansas,1237507200000,20090320,Great Southern Bank,669.8,62,1357420806903,1357420900325,1,-94.87577,38.57889,"{""type"":""Point"",""coordinates"":[-94.87577,38.57889]}"
41,CapitalSouth Bank,Birmingham,Alabama,1250812800000,20090821,IBERIABANK,617,63,1357420806903,1357420901220,1,-86.8115,33.52029,"{""type"":""Point"",""coordinates"":[-86.8115,33.52029]}"
42,Independent Bankers' Bank,Springfield,Illinois,1261094400000,20091218,The Independent Bankers Bank,586,64,1357420806903,1357420902278,1,-89.6436,39.80105,"{""type"":""Point"",""coordinates"":[-89.6436,39.80105]}"
43,Warren Bank,Warren,Michigan,1254441600000,20091002,The Huntington National Bank,538,66,1357420806903,1357420904204,1,-83.02852,42.51111,"{""type"":""Point"",""coordinates"":[-83.02852,42.51111]}"
44,Strategic Capital Bank,Champaign,Illinois,1242950400000,20090522,Midland States Bank,537,67,1357420806903,1357420905001,1,-88.2435,40.1142,"{""type"":""Point"",""coordinates"":[-88.2435,40.1142]}"
45,"Irwin Union Bank, F.S.B.",Louisville,Kentucky,1253232000000,20090918,"First Financial Bank, N.A.",493,69,1357420806903,1357420906742,1,-85.7664,38.25486,"{""type"":""Point"",""coordinates"":[-85.7664,38.25486]}"
46,Cape Fear Bank,Wilmington,North Carolina,1239321600000,20090410,First Federal Savings and Loan Association,492,70,1357420806903,1357420907826,1,-77.94599,34.23497,"{""type"":""Point"",""coordinates"":[-77.94599,34.23497]}"
47,First State Bank,Sarasota,Florida,1249603200000,20090807,"Stearns Bank, N.A.",463,72,1357420806903,1357420909266,1,-82.53963,27.33888,"{""type"":""Point"",""coordinates"":[-82.53963,27.33888]}"
48,Mainstreet Bank,Forest Lake,Minnesota,1251417600000,20090828,Central Bank,459,73,1357420806903,1357420910310,1,-92.9842,45.28191,"{""type"":""Point"",""coordinates"":[-92.9842,45.28191]}"
49,Mirae Bank,Los Angeles,California,1245974400000,20090626,Wilshire State Bank,456,75,1357420806903,1357420912564,1,-118.24532,34.05349,"{""type"":""Point"",""coordinates"":[-118.24532,34.05349]}"
50,Security Bank of Jones County,Gray,Georgia,1248393600000,20090724,State Bank and Trust Company,453,76,1357420806903,1357420913765,1,-83.53435,33.00944,"{""type"":""Point"",""coordinates"":[-83.53435,33.00944]}"
51,Bank of Clark County,Vancouver,Washington,1232064000000,20090116,Umpqua Bank,446.5,78,1357420806903,1357420915988,1,-122.67156,45.63221,"{""type"":""Point"",""coordinates"":[-122.67156,45.63221]}"
52,Citizens National Bank,Macomb,Illinois,1242950400000,20090522,Morton Community Bank,437,79,1357420806903,1357420916768,1,-90.66948,40.45989,"{""type"":""Point"",""coordinates"":[-90.66948,40.45989]}"
53,"Republic Federal Bank, N.A.",Miami,Florida,1260489600000,20091211,1st United Bank,433,80,1357420806903,1357420917630,1,-80.19773,25.77481,"{""type"":""Point"",""coordinates"":[-80.19773,25.77481]}"
54,Security Bank of Houston County,Perry,Georgia,1248393600000,20090724,State Bank and Trust Company,383,82,1357420806903,1357420919749,1,-83.73475,32.46087,"{""type"":""Point"",""coordinates"":[-83.73475,32.46087]}"
55,Southern Community Bank,Fayetteville,Georgia,1245369600000,20090619,United Community Bank,377,83,1357420806903,1357420920425,1,-84.45456,33.44865,"{""type"":""Point"",""coordinates"":[-84.45456,33.44865]}"
56,Platinum Community Bank,Rolling Meadows,Illinois,1252022400000,20090904,None (insured depositors paid directly),346,85,1357420806903,1357420921980,1,-88.02642,42.0806,"{""type"":""Point"",""coordinates"":[-88.02642,42.0806]}"
57,FirstBank Financial Service,McDonough,Georgia,1233878400000,20090206,Regions Bank,337,86,1357420806903,1357420922994,1,-84.14773,33.44774,"{""type"":""Point"",""coordinates"":[-84.14773,33.44774]}"
58,Bank of Elmwood,Racine,Wisconsin,1256256000000,20091023,Tri City National Bank,327,88,1357420806903,1357420924565,1,-87.79041,42.72521,"{""type"":""Point"",""coordinates"":[-87.79041,42.72521]}"
59,North Houston Bank,Houston,Texas,1256860800000,20091030,"U.S. Bank, N.A.",326,89,1357420806903,1357420926227,1,-95.36978,29.76045,"{""type"":""Point"",""coordinates"":[-95.36978,29.76045]}"
60,America West Bank,Layton,Utah,1241136000000,20090501,Cache Valley Bank,299.4,91,1357420806903,1357420928013,1,-111.96102,41.06593,"{""type"":""Point"",""coordinates"":[-111.96102,41.06593]}"
61,FirstCity Bank,Stockbridge,Georgia,1237507200000,20090320,None (insured depositors paid directly),297,92,1357420806903,1357420928664,1,-84.2277,33.54378,"{""type"":""Point"",""coordinates"":[-84.2277,33.54378]}"
62,MagnetBank,Salt Lake City,Utah,1233273600000,20090130,None (insured depositors paid directly),292.9,94,1357420806903,1357420930148,1,-111.88822,40.76004,"{""type"":""Point"",""coordinates"":[-111.88822,40.76004]}"
63,First DuPage Bank of Westmont,Westmont,Illinois,1256256000000,20091023,First Midwest Bank,279,95,1357420806903,1357420930823,1,-87.9774,41.7952,"{""type"":""Point"",""coordinates"":[-87.9774,41.7952]}"
64,BankFirst,Sioux Falls,South Dakota,1247788800000,20090717,"Alerus Financial, N.A.",275,96,1357420806903,1357420931586,1,-96.73128,43.54535,"{""type"":""Point"",""coordinates"":[-96.73128,43.54535]}"
65,Great Basin Bank of Nevada,Elko,Nevada,1239926400000,20090417,Nevada State Bank,271,98,1357420806903,1357420932786,1,-115.76754,40.83568,"{""type"":""Point"",""coordinates"":[-115.76754,40.83568]}"
66,Madisonville State Bank,Madisonville,Texas,1256860800000,20091030,"U.S. Bank, N.A.",257,99,1357420806903,1357420934071,1,-95.91185,30.94996,"{""type"":""Point"",""coordinates"":[-95.91185,30.94996]}"
67,Heritage Community Bank,Glenwood,Illinois,1235692800000,20090227,"MB Financial Bank, N.A.",232.9,101,1357420806903,1357420936021,1,-87.61374,41.54567,"{""type"":""Point"",""coordinates"":[-87.61374,41.54567]}"
68,Security Bank of North Metro,Woodstock,Georgia,1248393600000,20090724,State Bank and Trust Company,224,102,1357420806903,1357420936776,1,-84.51879,34.10284,"{""type"":""Point"",""coordinates"":[-84.51879,34.10284]}"
69,Neighborhood Community Bank,Newnan,Georgia,1245974400000,20090626,Charterbank,221.6,104,1357420806903,1357420938250,1,-84.80047,33.37485,"{""type"":""Point"",""coordinates"":[-84.80047,33.37485]}"
70,Bank of Lincolnwood,Lincolnwood,Illinois,1244160000000,20090605,Republic Bank of Chicago,214,105,1357420806903,1357420939015,1,-87.73319,42.00694,"{""type"":""Point"",""coordinates"":[-87.73319,42.00694]}"
71,InBank,Oak Forest,Illinois,1252022400000,20090904,"MB Financial Bank, N.A.",212,107,1357420806903,1357420941075,1,-87.75629,41.61182,"{""type"":""Point"",""coordinates"":[-87.75629,41.61182]}"
72,Security Bank of North Fulton,Alpharetta,Georgia,1248393600000,20090724,State Bank and Trust Company,209,108,1357420806903,1357420941798,1,-84.29455,34.07537,"{""type"":""Point"",""coordinates"":[-84.29455,34.07537]}"
73,Prosperan Bank,Oakdale,Minnesota,1257465600000,20091106,"Alerus Financial, N.A.",200,111,1357420806903,1357420943997,1,-92.96447,44.97202,"{""type"":""Point"",""coordinates"":[-92.96447,44.97202]}"
74,Flagship National Bank,Bradenton,Florida,1256256000000,20091023,First Federal Bank of Florida,190,113,1357420806903,1357420945496,1,-82.57807,27.4955,"{""type"":""Point"",""coordinates"":[-82.57807,27.4955]}"
75,Michigan Heritage Bank,Farmington Hills,Michigan,1240531200000,20090424,Level One Bank,184.6,114,1357420806903,1357420946439,1,-83.3634,42.48456,"{""type"":""Point"",""coordinates"":[-83.3634,42.48456]}"
76,Freedom Bank of Georgia,Commerce,Georgia,1236297600000,20090306,Northeast Georgia Bank,173,116,1357420806903,1357420948223,1,-83.45754,34.20363,"{""type"":""Point"",""coordinates"":[-83.45754,34.20363]}"
77,Benchmark Bank,Aurora,Illinois,1259884800000,20091204,"MB Financial Bank, N.A.",170,117,1357420806903,1357420949135,1,-88.31577,41.75695,"{""type"":""Point"",""coordinates"":[-88.31577,41.75695]}"
78,First National Bank of Danville,Danville,Illinois,1246492800000,20090702,"First Financial Bank, N.A.",166,120,1357420806903,1357420951158,1,-87.63043,40.15946,"{""type"":""Point"",""coordinates"":[-87.63043,40.15946]}"
79,First BankAmericano,Elizabeth,New Jersey,1248998400000,20090731,Crown Bank,166,121,1357420806903,1357420952190,1,-74.21146,40.66351,"{""type"":""Point"",""coordinates"":[-74.21146,40.66351]}"
80,Community Bank of Nevada,Las Vegas,Nevada,1250208000000,20090814,None (insured depositors paid directly),159,122,1357420806903,1357420953096,1,-115.13997,36.17191,"{""type"":""Point"",""coordinates"":[-115.13997,36.17191]}"
81,Fist National Bank of Anthony,Anthony,Kansas,1245369600000,20090619,Bank of Kansas,156.9,124,1357420806903,1357420955027,1,-98.0308,37.1522,"{""type"":""Point"",""coordinates"":[-98.0308,37.1522]}"
82,Community Bank of Arizona,Phoenix,Arizona,1250208000000,20090814,MidFirst Bank,156,125,1357420806903,1357420956339,1,-112.07577,33.44826,"{""type"":""Point"",""coordinates"":[-112.07577,33.44826]}"
83,Pacific Coast National Bank,San Clemente,California,1258070400000,20091113,Sunwest Bank,134,127,1357420806903,1357420957800,1,-117.60733,33.42862,"{""type"":""Point"",""coordinates"":[-117.60733,33.42862]}"
84,Silver Falls Bank,Silverton,Oregon,1235088000000,20090220,Citizens Bank,131.4,128,1357420806903,1357420958537,1,-122.78217,45.00394,"{""type"":""Point"",""coordinates"":[-122.78217,45.00394]}"
85,First Security National Bank,Norcross,Georgia,1259884800000,20091204,State Bank and Trust,128,130,1357420806903,1357420960263,1,-84.21131,33.94263,"{""type"":""Point"",""coordinates"":[-84.21131,33.94263]}"
86,"Union Bank, NA",Gilbert,Arizona,1250208000000,20090814,MidFirst Bank,124,131,1357420806903,1357420961332,1,-111.78976,33.32904,"{""type"":""Point"",""coordinates"":[-111.78976,33.32904]}"
87,Integrity Bank,Jupiter,Florida,1248998400000,20090731,Stonegate Bank,119,133,1357420806903,1357420963157,1,-80.10189,26.93276,"{""type"":""Point"",""coordinates"":[-80.10189,26.93276]}"
88,Millennium State Bank of Texas,Dallas,Texas,1246492800000,20090702,State Bank of Texas,118,134,1357420806903,1357420964481,1,-96.7954,32.77815,"{""type"":""Point"",""coordinates"":[-96.7954,32.77815]}"
89,First Piedmont Bank,Winder,Georgia,1247788800000,20090717,First American Bank and Trust Company,115,136,1357420806903,1357420966254,1,-83.72249,33.99121,"{""type"":""Point"",""coordinates"":[-83.72249,33.99121]}"
90,American Southern Bank,Kennesaw,Georgia,1240531200000,20090424,Bank of North Georgia,112.3,137,1357420806903,1357420966996,1,-84.61676,34.0234,"{""type"":""Point"",""coordinates"":[-84.61676,34.0234]}"
91,Riverview Community Bank,Otsego,Minnesota,1256256000000,20091023,Central Bank,108,139,1357420806903,1357420968615,1,-93.61274,45.28986,"{""type"":""Point"",""coordinates"":[-93.61274,45.28986]}"
92,First State Bank,Flagstaff,Arizona,1252022400000,20090904,Sunwest Bank,105,140,1357420806903,1357420969394,1,-111.6513,35.1982,"{""type"":""Point"",""coordinates"":[-111.6513,35.1982]}"
93,Community National Bank of Sarasota County,Venice,Florida,1249603200000,20090807,"Stearns Bank, N.A.",97,142,1357420806903,1357420970977,1,-82.45001,27.09944,"{""type"":""Point"",""coordinates"":[-82.45001,27.09944]}"
94,Horizon Bank,Pine City,Minnesota,1245974400000,20090626,"Stearns Bank, N.A.",87.6,143,1357420806903,1357420972100,1,-92.97045,45.8281,"{""type"":""Point"",""coordinates"":[-92.97045,45.8281]}"
95,Community Bank of Lemont,Lemont,Illinois,1256860800000,20091030,"U.S. Bank, N.A.",82,145,1357420806903,1357420973440,1,-87.99799,41.67478,"{""type"":""Point"",""coordinates"":[-87.99799,41.67478]}"
96,MetroPacific Bank,Irvine,California,1245974400000,20090626,Sunwest Bank,80,146,1357420806903,1357420974425,1,-117.82534,33.68688,"{""type"":""Point"",""coordinates"":[-117.82534,33.68688]}"
97,Rock River Bank,Oregon,Illinois,1246492800000,20090702,The Harvard State Bank,77,148,1357420806903,1357420975996,1,-89.33184,42.01458,"{""type"":""Point"",""coordinates"":[-89.33184,42.01458]}"
98,Pinnacle Bank of Oregon,Beaverton,Oregon,1234483200000,20090213,Washington Trust Bank of Spokane,73,149,1357420806903,1357420977024,1,-122.7965,45.48538,"{""type"":""Point"",""coordinates"":[-122.7965,45.48538]}"
99,John Warner Bank,Clinton,Illinois,1246492800000,20090702,State Bank of Lincoln,70,151,1357420806903,1357420978786,1,-88.96395,40.1485,"{""type"":""Point"",""coordinates"":[-88.96395,40.1485]}"
100,Bank of Wyoming,Thermopolis,Wyoming,1247184000000,20090710,Central Bank and Trust,70,152,1357420806903,1357420979460,1,-108.21195,43.64673,"{""type"":""Point"",""coordinates"":[-108.21195,43.64673]}"
101,Partners Bank,Naples,Florida,1256256000000,20091023,Stonegate Bank,66,153,1357420806903,1357420980155,1,-81.79579,26.13909,"{""type"":""Point"",""coordinates"":[-81.79579,26.13909]}"
102,Jennings State Bank,Spring Grove,Minnesota,1254441600000,20091002,Central Bank,56,156,1357420806903,1357420982724,1,-91.63699,43.56099,"{""type"":""Point"",""coordinates"":[-91.63699,43.56099]}"
103,The Tattnall Bank,Reidsville,Georgia,1259884800000,20091204,Heritage Bank of the South,50,157,1357420806903,1357420983386,1,-82.11716,32.08632,"{""type"":""Point"",""coordinates"":[-82.11716,32.08632]}"
104,Citizens Community Bank,Ridgewood,New Jersey,1241136000000,20090501,North Jersey Community Bank,45.1,158,1357420806903,1357420984081,1,-74.11261,40.98151,"{""type"":""Point"",""coordinates"":[-74.11261,40.98151]}"
105,South Colorado National Bank,Pueblo,Colorado,1254441600000,20091002,Legacy Bank,40,159,1357420806903,1357420984764,1,-104.61237,38.26386,"{""type"":""Point"",""coordinates"":[-104.61237,38.26386]}"
106,First State Bank of Winchester,Winchester,Illinois,1246492800000,20090702,The First National Bank of Beardstown,36,161,1357420806903,1357420987003,1,-90.45744,39.62979,"{""type"":""Point"",""coordinates"":[-90.45744,39.62979]}"
107,Gateway Bank of St. Louis,St. Louis,Missouri,1257465600000,20091106,Central Bank of Kansas City,28,162,1357420806903,1357420988119,1,-90.19951,38.62774,"{""type"":""Point"",""coordinates"":[-90.19951,38.62774]}"
108,First Bank of Kansas City,Kansas City,Missouri,1252022400000,20090904,Great American Bank,16,163,1357420806903,1357420989948,1,-94.58306,39.10295,"{""type"":""Point"",""coordinates"":[-94.58306,39.10295]}"
109,Dwelling House Savings and Loan Association,Pittsburgh,Pennsylvania,1250208000000,20090814,"PNC Bank, N.A.",13,165,1357420806903,1357420992033,1,-79.99746,40.43833,"{""type"":""Point"",""coordinates"":[-79.99746,40.43833]}"
110,R-G Premier Bank of Puerto Rico,Hato Rey,Puerto Rico,1272585600000,20100430,Scotiabank de Puerto Rico,5920,167,1357420806903,1357420993403,1,-66.04946,18.42115,"{""type"":""Point"",""coordinates"":[-66.04946,18.42115]}"
111,La Jolla Bank,La Jolla,California,1266537600000,20100219,"OneWest Bank, FSB",3600,168,1357420806903,1357420994264,1,-117.87405,33.85811,"{""type"":""Point"",""coordinates"":[-117.87405,33.85811]}"
112,Frontier Bank,Everett,Washington,1272585600000,20100430,"Union Bank, N.A.",3500,169,1357420806903,1357420995279,1,-122.20642,47.97658,"{""type"":""Point"",""coordinates"":[-122.20642,47.97658]}"
113,Amcore Bank,Rockford,Illinois,1271980800000,20100423,"Harris, N.A.",3400,171,1357420806903,1357420997623,1,-89.07835,42.2669,"{""type"":""Point"",""coordinates"":[-89.07835,42.2669]}"
114,Midwest Bank and Trust Company,Elmwood Park,Illinois,1273795200000,20100514,"FirstMerit Bank, N.A.",3170,172,1357420806903,1357420998480,1,-87.81847,41.9272,"{""type"":""Point"",""coordinates"":[-87.81847,41.9272]}"
115,Eurobank,San Juan,Puerto Rico,1272585600000,20100430,Orient Bank and Trust,2560,174,1357420806903,1357421000372,1,-66.10474,18.46633,"{""type"":""Point"",""coordinates"":[-66.10474,18.46633]}"
116,First Regional Bank,Los Angeles,California,1264723200000,20100129,First-Citizens Bank and Trust Company,2180,175,1357420806903,1357421001276,1,-118.24532,34.05349,"{""type"":""Point"",""coordinates"":[-118.24532,34.05349]}"
117,CF Bancorp,Port Huron,Michigan,1272585600000,20100430,First Michigan Bank,1650,177,1357420806903,1357421002750,1,-82.42845,42.97583,"{""type"":""Point"",""coordinates"":[-82.42845,42.97583]}"
118,Advanta Bank Corp,Draper,Utah,1268956800000,20100319,None (insured depositors paid directly),1600,178,1357420806903,1357421003713,1,-111.86627,40.52414,"{""type"":""Point"",""coordinates"":[-111.86627,40.52414]}"
119,Horizon Bank,Bellingham,Washington,1262908800000,20100108,Washington Federal Savings and Loan Association,1300,180,1357420806903,1357421005004,1,-122.47122,48.75235,"{""type"":""Point"",""coordinates"":[-122.47122,48.75235]}"
120,Community Bank and Trust,Cornelia,Georgia,1264723200000,20100129,"SCBT, NA",1210,181,1357420806903,1357421005809,1,-83.52757,34.51211,"{""type"":""Point"",""coordinates"":[-83.52757,34.51211]}"
121,Broadway Bank,Chicago,Illinois,1271980800000,20100423,"MB Financial, N.A.",1200,183,1357420806903,1357421007403,1,-87.63241,41.88415,"{""type"":""Point"",""coordinates"":[-87.63241,41.88415]}"
122,Premier Bank,Jefferson City,Missouri,1287100800000,20101015,Providence Bank,1200,184,1357420806903,1357421008492,1,-92.17784,38.57751,"{""type"":""Point"",""coordinates"":[-92.17784,38.57751]}"
123,Columbia River Bank,The Dalles,Oregon,1264118400000,20100122,Columbia State Bank,1100,186,1357420806903,1357421010449,1,-121.18343,45.60155,"{""type"":""Point"",""coordinates"":[-121.18343,45.60155]}"
124,Appalachian Community Bank,Ellijay,Georgia,1268956800000,20100319,Community and Southern Bank,1010,187,1357420806903,1357421011131,1,-84.4829,34.69451,"{""type"":""Point"",""coordinates"":[-84.4829,34.69451]}"
125,Florida Community Bank,Immokalee,Florida,1264723200000,20100129,"Premier American Bank, N.A.",876,189,1357420806903,1357421012917,1,-81.41996,26.41858,"{""type"":""Point"",""coordinates"":[-81.41996,26.41858]}"
126,Los Padres Bank,Solvang,California,1282262400000,20100820,Pacific Western Bank,870,190,1357420806903,1357421013566,1,-120.14456,34.59606,"{""type"":""Point"",""coordinates"":[-120.14456,34.59606]}"
127,Barnes Banking Company,Kaysville,Utah,1263513600000,20100115,None (insured depositors paid directly),828,192,1357420806903,1357421014746,1,-111.93748,41.03485,"{""type"":""Point"",""coordinates"":[-111.93748,41.03485]}"
128,First Banking Center,Burlington,Wisconsin,1290124800000,20101119,First Michigan Bank,821,193,1357420806903,1357421015439,1,-88.27696,42.68,"{""type"":""Point"",""coordinates"":[-88.27696,42.68]}"
129,LibertyBank,Eugene,Oregon,1280448000000,20100730,Home Federal Bank,768,194,1357420806903,1357421016270,1,-123.08854,44.04992,"{""type"":""Point"",""coordinates"":[-123.08854,44.04992]}"
130,First National Bank of the South,Spartanburg,South Carolina,1279238400000,20100716,NAFH National Bank,682,196,1357420806903,1357421018009,1,-81.93487,34.94825,"{""type"":""Point"",""coordinates"":[-81.93487,34.94825]}"
131,Peninsula Bank,Englewood,Florida,1277424000000,20100625,"Premier American Bank, N.A.",644,198,1357420806903,1357421019445,1,-82.35316,26.95042,"{""type"":""Point"",""coordinates"":[-82.35316,26.95042]}"
132,Bank of Florida-Southwest,Naples,Florida,1275004800000,20100528,EverBank,641,199,1357420806903,1357421020283,1,-81.79579,26.13909,"{""type"":""Point"",""coordinates"":[-81.79579,26.13909]}"
133,Tamalpais Bank,San Rafael,California,1271376000000,20100416,"Union Bank, N.A.",629,200,1357420806903,1357421021252,1,-122.53247,37.97457,"{""type"":""Point"",""coordinates"":[-122.53247,37.97457]}"
134,Beach First National Bank,Myrtle Beach,South Carolina,1270771200000,20100409,Bank of North Carolina,585,202,1357420806903,1357421023014,1,-78.88266,33.69356,"{""type"":""Point"",""coordinates"":[-78.88266,33.69356]}"
135,Home National Bank,Blackwell,Oklahoma,1278633600000,20100709,RCB Bank,561,203,1357420806903,1357421023860,1,-97.28298,36.80481,"{""type"":""Point"",""coordinates"":[-97.28298,36.80481]}"
136,Sun American Bank,Boca Raton,Florida,1267747200000,20100305,First-Citizens Bank and Trust Company,536,205,1357420806903,1357421030058,1,-80089,26.35049,"{""type"":""Point"",""coordinates"":[-80.089,26.35049]}"
137,The Cowlitz Bank,Longview,Washington,1280448000000,20100730,Heritage Bank,529,206,1357420806903,1357421030858,1,-122.95054,46.14681,"{""type"":""Point"",""coordinates"":[-122.95054,46.14681]}"
138,The Park Avenue Bank,New York,New York,1268352000000,20100312,Valley National Bank,520,208,1357420806903,1357421035205,1,-74.00712,40.71455,"{""type"":""Point"",""coordinates"":[-74.00712,40.71455]}"
139,"Security Savings Bank, FSB",Olathe,Kansas,1287100800000,20101015,Simmons First National Bank,508,209,1357420806903,1357421035968,1,-94.81887,38.88353,"{""type"":""Point"",""coordinates"":[-94.81887,38.88353]}"
140,Desert Hills Bank,Phoenix,Arizona,1269561600000,20100326,New York Community Bank,497,211,1357420806903,1357421037954,1,-112.07577,33.44826,"{""type"":""Point"",""coordinates"":[-112.07577,33.44826]}"
141,Palos Bank and Trust,Palos Heights,Illinois,1281657600000,20100813,First Midwest Bank,493,212,1357420806903,1357421038662,1,-87.80754,41.6751,"{""type"":""Point"",""coordinates"":[-87.80754,41.6751]}"
142,New Century Bank,Chicago,Illinois,1271980800000,20100423,"MB Financial, N.A.",486,214,1357420806903,1357421040133,1,-87.63241,41.88415,"{""type"":""Point"",""coordinates"":[-87.63241,41.88415]}"
143,Nevada Security Bank,Reno,Nevada,1276819200000,20100618,Umpqua Bank,480,215,1357420806903,1357421040819,1,-119.81344,39.52738,"{""type"":""Point"",""coordinates"":[-119.81344,39.52738]}"
144,Metro Bank of Dade County,Miami,Florida,1279238400000,20100716,NAFH National Bank,442,218,1357420806903,1357421043335,1,-80.19773,25.77481,"{""type"":""Point"",""coordinates"":[-80.19773,25.77481]}"
145,Wakulla Bank,Crawfordville,Florida,1285891200000,20101001,Centennial Bank,424,220,1357420806903,1357421044940,1,-84.37548,30.17627,"{""type"":""Point"",""coordinates"":[-84.37548,30.17627]}"
146,George Washington Savings Bank,Orland Park,Illinois,1266537600000,20100219,"FirstMerit Bank, N.A.",413,221,1357420806903,1357421048897,1,-87.85347,41.61728,"{""type"":""Point"",""coordinates"":[-87.85347,41.61728]}"
147,Sterling Bank,Lantana,Florida,1279843200000,20100723,IBERIABANK,408,222,1357420806903,1357421049739,1,-80.05503,26.57687,"{""type"":""Point"",""coordinates"":[-80.05503,26.57687]}"
148,Bank of Hiawassee,Hiawassee,Georgia,1268956800000,20100319,Citizens South Bank,378,224,1357420806903,1357421051167,1,-83.75839,34.95002,"{""type"":""Point"",""coordinates"":[-83.75839,34.95002]}"
149,Woodlands Bank,Bluffton,South Carolina,1279238400000,20100716,Bank of the Ozarks,376,225,1357420806903,1357421051835,1,-80.86133,32.23721,"{""type"":""Point"",""coordinates"":[-80.86133,32.23721]}"
150,Coastal Community Bank,Panama City,Florida,1280448000000,20100730,Centennial Bank,373,227,1357420806903,1357421054764,1,-85.66033,30.15987,"{""type"":""Point"",""coordinates"":[-85.66033,30.15987]}"
151,McIntosh Commercial Bank,Carrollton,Georgia,1269561600000,20100326,Hamilton State Bank,363,228,1357420806903,1357421056096,1,-85.07841,33.5813,"{""type"":""Point"",""coordinates"":[-85.07841,33.5813]}"
152,Premier American Bank,Miami,Florida,1264118400000,20100122,"Premier American Bank, N.A.",351,230,1357420806903,1357421057319,1,-80.19773,25.77481,"{""type"":""Point"",""coordinates"":[-80.19773,25.77481]}"
153,Maritime Savings Bank,West Allis,Wisconsin,1284681600000,20100917,"North Shore Bank, FSB",351,231,1357420806903,1357421057968,1,-88.00664,43.01665,"{""type"":""Point"",""coordinates"":[-88.00664,43.01665]}"
154,1st Pacific Bank of California,San Diego,California,1273190400000,20100507,City National Bank,336,233,1357420806903,1357421060422,1,-117.16172,32.71569,"{""type"":""Point"",""coordinates"":[-117.16172,32.71569]}"
155,Old Southern Bank,Orlando,Florida,1268352000000,20100312,Centennial Bank,316,234,1357420806903,1357421061357,1,-81.37739,28.53823,"{""type"":""Point"",""coordinates"":[-81.37739,28.53823]}"
156,Unity National Bank,Cartersville,Georgia,1269561600000,20100326,Bank of the Ozarks,292,236,1357420806903,1357421063189,1,-84.7957,34.16517,"{""type"":""Point"",""coordinates"":[-84.7957,34.16517]}"
157,North County Bank,Arlington,Washington,1285286400000,20100924,Whidbey Island Bank,289,237,1357420806903,1357421064230,1,-122.12641,48.19429,"{""type"":""Point"",""coordinates"":[-122.12641,48.19429]}"
158,Innovative Bank,Oakland,California,1271376000000,20100416,Center Bank,269,240,1357420806903,1357421067398,1,-122.27307,37.80508,"{""type"":""Point"",""coordinates"":[-122.27307,37.80508]}"
159,Butler Bank,Lowell,Massachusetts,1271376000000,20100416,People's United Bank,268,241,1357420806903,1357421069450,1,-71.31284,42.64588,"{""type"":""Point"",""coordinates"":[-71.31284,42.64588]}"
160,Turnberry Bank,Aventura,Florida,1279238400000,20100716,NAFH National Bank,264,243,1357420806903,1357421071124,1,-80.14464,25.96861,"{""type"":""Point"",""coordinates"":[-80.14464,25.96861]}"
161,First National Bank,Savannah,Georgia,1277424000000,20100625,The Savannah Bank,253,244,1357420806903,1357421071927,1,-81.09119,32.08091,"{""type"":""Point"",""coordinates"":[-81.09119,32.08091]}"
162,Paramount Bank,Farmington Hills,Michigan,1291939200000,20101210,Level One Bank,253,245,1357420806903,1357421072698,1,-83.3634,42.48456,"{""type"":""Point"",""coordinates"":[-83.3634,42.48456]}"
163,First Commerce Community Bank,Douglasville,Georgia,1284681600000,20100917,Community and Southern Bank,248,247,1357420806903,1357421074604,1,-84.74912,33.75018,"{""type"":""Point"",""coordinates"":[-84.74912,33.75018]}"
164,Bank of Florida-Tampa Bay,Tampa,Florida,1275004800000,20100528,EverBank,245,248,1357420806903,1357421075793,1,-82.45927,27.94653,"{""type"":""Point"",""coordinates"":[-82.45927,27.94653]}"
165,The Bank of Bonifay,Bonifay,Florida,1273190400000,20100507,First Federal Bank of Florida,243,251,1357420806903,1357421077790,1,-85.67961,30.79352,"{""type"":""Point"",""coordinates"":[-85.67961,30.79352]}"
166,Pierce Commercial Bank,Tacoma,Washington,1288915200000,20101105,Heritage Bank,221,252,1357420806903,1357421078793,1,-122.44165,47.25513,"{""type"":""Point"",""coordinates"":[-122.44165,47.25513]}"
167,Centennial Bank,Ogden,Utah,1267747200000,20100305,None (insured depositors paid directly),215,253,1357420806903,1357421079675,1,-111.97048,41.22236,"{""type"":""Point"",""coordinates"":[-111.97048,41.22236]}"
168,SouthwestUSA Bank,Las Vegas,Nevada,1279843200000,20100723,Plaza Bank,214,254,1357420806903,1357421080590,1,-115.13997,36.17191,"{""type"":""Point"",""coordinates"":[-115.13997,36.17191]}"
169,LibertyPointe Bank,New York,New York,1268352000000,20100312,Valley National Bank,210,256,1357420806903,1357421083121,1,-74.00712,40.71455,"{""type"":""Point"",""coordinates"":[-74.00712,40.71455]}"
170,Copper Star Bank,Scottsdale,Arizona,1289520000000,20101112,"Stearns Bank, N.A.",204,257,1357420806903,1357421084187,1,-111.92069,33494,"{""type"":""Point"",""coordinates"":[-111.92069,33.494]}"
171,United Americas Bank,Atlanta,Georgia,1292544000000,20101217,State Bank and Trust Company,194,259,1357420806903,1357421085764,1,-84.39111,33.74831,"{""type"":""Point"",""coordinates"":[-84.39111,33.74831]}"
172,USA Bank,Port Chester,New York,1278633600000,20100709,New Century Bank,190,260,1357420806903,1357421087029,1,-73.66619,41.00106,"{""type"":""Point"",""coordinates"":[-73.66619,41.00106]}"
173,Horizon Bank,Bradenton,Florida,1284076800000,20100910,Bank of the Ozarks,188,261,1357420806903,1357421087956,1,-82.57807,27.4955,"{""type"":""Point"",""coordinates"":[-82.57807,27.4955]}"
174,Olde Cypress Community Bank,Clewiston,Florida,1279238400000,20100716,CenterState Bank of Florida,169,263,1357420806903,1357421089089,1,-80.93557,26.75427,"{""type"":""Point"",""coordinates"":[-80.93557,26.75427]}"
175,Bank of Ellijay,Ellijay,Georgia,1284681600000,20100917,Community and Southern Bank,169,264,1357420806903,1357421089616,1,-84.4829,34.69451,"{""type"":""Point"",""coordinates"":[-84.4829,34.69451]}"
176,Waterfield Bank,Germantown,Maryland,1267747200000,20100305,None (insured depositors paid directly),156,266,1357420806903,1357421091233,1,-77.27004,39.18218,"{""type"":""Point"",""coordinates"":[-77.27004,39.18218]}"
177,Independent National Bank,Ocala,Florida,1282262400000,20100820,CenterState Bank of Florida,156,267,1357420806903,1357421092116,1,-82.14039,29.18752,"{""type"":""Point"",""coordinates"":[-82.14039,29.18752]}"
178,First Southern Bank,Batesville,Arkansas,1292544000000,20101217,Southern Bank,156,268,1357420806903,1357421092930,1,-91.65,35.76976,"{""type"":""Point"",""coordinates"":[-91.65,35.76976]}"
179,First Suburban National Bank,Maywood,Illinois,1287705600000,20101022,Seaway Bank and Trust Company,149,270,1357420806903,1357421094327,1,-87.83917,41.88711,"{""type"":""Point"",""coordinates"":[-87.83917,41.88711]}"
180,First Lowndes Bank,Luverne,Alabama,1268956800000,20100319,First Citizens Bank,137,273,1357420806903,1357421096579,1,-86.26379,31.71596,"{""type"":""Point"",""coordinates"":[-86.26379,31.71596]}"
181,Satilla Community Bank,St. Marys,Georgia,1273795200000,20100514,Ameris Bank,136,274,1357420806903,1357421097352,1,-81.54609,30.73115,"{""type"":""Point"",""coordinates"":[-81.54609,30.73115]}"
182,Peotone Bank and Trust Company,Peotone,Illinois,1271980800000,20100423,First Midwest Bank,130,276,1357420806903,1357421098698,1,-87.78969,41.33329,"{""type"":""Point"",""coordinates"":[-87.78969,41.33329]}"
183,Marco Community Bank,Marco Island,Florida,1266537600000,20100219,Mutual of Omaha Bank,120,277,1357420806903,1357421099259,1,-81.72445,25.95366,"{""type"":""Point"",""coordinates"":[-81.72445,25.95366]}"
184,Earthstar Bank,Southampton,Pennsylvania,1291939200000,20101210,Polonia Bank,113,279,1357420806903,1357421100998,1,-75.04147,40.17547,"{""type"":""Point"",""coordinates"":[-75.04147,40.17547]}"
185,Gulf State Community Bank,Carrabelle,Florida,1290124800000,20101119,Centennial Bank,112,280,1357420806903,1357421101606,1,-84.66472,29.85336,"{""type"":""Point"",""coordinates"":[-84.66472,29.85336]}"
186,Progress Bank of Florida,Tampa,Florida,1287705600000,20101022,Bay Cities Bank,111,281,1357420806903,1357421102738,1,-82.45927,27.94653,"{""type"":""Point"",""coordinates"":[-82.45927,27.94653]}"
187,Community Security Bank,New Prague,Minnesota,1279843200000,20100723,Roundbank,108,283,1357420806903,1357421104587,1,-93.57743,44.54421,"{""type"":""Point"",""coordinates"":[-93.57743,44.54421]}"
188,Shoreline Bank,Shoreline,Washington,1285891200000,20101001,GBC International Bank,104,285,1357420806903,1357421106054,1,-122.34463,47.75703,"{""type"":""Point"",""coordinates"":[-122.34463,47.75703]}"
189,Granite Community Bank,Granite Bay,California,1275004800000,20100528,Tri Counties Bank,103,286,1357420806903,1357421106836,1,-121.17061,38.74078,"{""type"":""Point"",""coordinates"":[-121.17061,38.74078]}"
190,Western Commercial Bank,Woodland Hills,California,1288915200000,20101105,First California Bank,99,287,1357420806903,1357421107583,1,-118.61092,34.1688,"{""type"":""Point"",""coordinates"":[-118.61092,34.1688]}"
191,Southwest Community Bank,Springfield,Missouri,1273795200000,20100514,Simmons First National Bank,97,289,1357420806903,1357421109299,1,-93.29156,37.20897,"{""type"":""Point"",""coordinates"":[-93.29156,37.20897]}"
192,Mainstreet Savings Bank,Hastings,Michigan,1279238400000,20100716,Commercial Bank,97,290,1357420806903,1357421110149,1,-85.29065,42.64919,"{""type"":""Point"",""coordinates"":[-85.29065,42.64919]}"
193,AmericanFirst Bank,Clermont,Florida,1271376000000,20100416,"TD Bank, N.A.",91,292,1357420806903,1357421111457,1,-81.76634,28.55129,"{""type"":""Point"",""coordinates"":[-81.76634,28.55129]}"
194,Key West Bank,Key West,Florida,1269561600000,20100326,Centennial Bank,88,293,1357420806903,1357421112513,1,-81.80037,24.55444,"{""type"":""Point"",""coordinates"":[-81.80037,24.55444]}"
195,ISN Bank,Cherry Hill,New Jersey,1284681600000,20100917,Customers Bank,82,294,1357420806903,1357421113450,1,-75.03055,39.9275,"{""type"":""Point"",""coordinates"":[-75.03055,39.9275]}"
196,First Bank of Jacksonville,Jacksonville,Florida,1287705600000,20101022,Ameris Bank,81,296,1357420806903,1357421115586,1,-81.65622,30.33147,"{""type"":""Point"",""coordinates"":[-81.65622,30.33147]}"
197,Town Community Bank & Trust,Antioch,Illinois,1263513600000,20100115,First American Bank,70,298,1357420806903,1357421117276,1,-88.09638,42.47895,"{""type"":""Point"",""coordinates"":[-88.09638,42.47895]}"
198,American National Bank,Parma,Ohio,1268956800000,20100319,The National Bank and Trust Company,70,299,1357420806903,1357421118050,1,-81.73465,41.38419,"{""type"":""Point"",""coordinates"":[-81.73465,41.38419]}"
199,Community National Bank at Bartow,Bartow,Florida,1282262400000,20100820,CenterState Bank of Florida,68,300,1357420806903,1357421118793,1,-81.84154,27.89911,"{""type"":""Point"",""coordinates"":[-81.84154,27.89911]}"
200,BC National Banks,Butler,Missouri,1272585600000,20100430,Community First Bank,67,302,1357420806903,1357421120390,1,-94.34329,38.25739,"{""type"":""Point"",""coordinates"":[-94.34329,38.25739]}"
201,Bayside Savings Bank,Port Saint Joe,Florida,1280448000000,20100730,Centennial Bank,66,303,1357420806903,1357421121231,1,-85.30354,29.81228,"{""type"":""Point"",""coordinates"":[-85.30354,29.81228]}"
202,Pinehurst Bank,St. Paul,Minnesota,1274400000000,20100521,Coulee Bank,61,304,1357420806903,1357421122156,1,-93.09332,44.94382,"{""type"":""Point"",""coordinates"":[-93.09332,44.94382]}"
203,First National Bank,Rosedale,Mississippi,1275609600000,20100604,The Jefferson Bank,60,306,1357420806903,1357421123782,1,-91.02767,33.85496,"{""type"":""Point"",""coordinates"":[-91.02767,33.85496]}"
204,Lakeside Community Bank,Sterling Heights,Michigan,1271376000000,20100416,None (insured depositors paid directly),53,308,1357420806903,1357421124944,1,-83.01337,42.5933,"{""type"":""Point"",""coordinates"":[-83.01337,42.5933]}"
205,Carson River Community Bank,Carson City,Nevada,1267142400000,20100226,Heritage Bank of Nevada,51,309,1357420806903,1357421125700,1,-119.76697,39.16488,"{""type"":""Point"",""coordinates"":[-119.76697,39.16488]}"
206,Bramble Savings Bank,Milford,Ohio,1284681600000,20100917,Foundation Bank,48,310,1357420806903,1357421126459,1,-84.29641,39.17236,"{""type"":""Point"",""coordinates"":[-84.29641,39.17236]}"
207,Thunder Bank,Sylvan Grove,Kansas,1279843200000,20100723,The Bennington State Bank,33,312,1357420806903,1357421128310,1,-98.39321,39.01153,"{""type"":""Point"",""coordinates"":[-98.39321,39.01153]}"
208,Access Bank,Champlin,Minnesota,1273190400000,20100507,PrinsBank,32,313,1357420806903,1357421128956,1,-93.3922,45.1695,"{""type"":""Point"",""coordinates"":[-93.3922,45.1695]}"
209,Community National Bank,Lino Lakes,Minnesota,1292544000000,20101217,Farmers & Merchants Savings Bank,29,315,1357420806903,1357421130673,1,-93.11177,45.17704,"{""type"":""Point"",""coordinates"":[-93.11177,45.17704]}"
210,State Bank of Aurora,Aurora,Minnesota,1268956800000,20100319,Northern State Bank,28,316,1357420806903,1357421131370,1,-92.23801,47.52984,"{""type"":""Point"",""coordinates"":[-92.23801,47.52984]}"
211,Bank of Leeton,Leeton,Missouri,1264118400000,20100122,"Sunflower Bank, N.A.",20,318,1357420806903,1357421133075,1,-93.69457,38.58263,"{""type"":""Point"",""coordinates"":[-93.69457,38.58263]}"
212,1st American State Bank of Minnesota,Hancock,Minnesota,1265328000000,20100205,"Community Development Bank, FSB",18,319,1357420806903,1357421134078,1,-95.79534,45.49792,"{""type"":""Point"",""coordinates"":[-95.79534,45.49792]}"
213,Imperial Savings & Loan,Martinsville,Virginia,1282262400000,20100820,"River Community Bank, N.A.",9,321,1357420806903,1357421136249,1,-79.86881,36.68996,"{""type"":""Point"",""coordinates"":[-79.86881,36.68996]}"
214,Ideal Federal Savings Bank,Baltimore,Maryland,1278633600000,20100709,None (insured depositors paid directly),6,322,1357420806903,1357421137287,1,-76.60926,39.29058,"{""type"":""Point"",""coordinates"":[-76.60926,39.29058]}"
215,Superior Bank,Birmingham,Alabama,1302825600000,20110415,"Superior Bank, NA",3000,323,1357420806903,1357421138085,1,-86.8115,33.52029,"{""type"":""Point"",""coordinates"":[-86.8115,33.52029]}"
216,Lydian Private Bank,Palm Beach,Florida,1313712000000,20110819,"Sabadell United Bank, N.A.",1700,326,1357420806903,1357421140306,1,-80.03661,26.70288,"{""type"":""Point"",""coordinates"":[-80.03661,26.70288]}"
217,Community Banks of Colorado,Greenwood Village,Colorado,1319155200000,20111021,"Bank Midwest, N.A.",1380,328,1357420806903,1357421141794,1,-104.90401,39.60917,"{""type"":""Point"",""coordinates"":[-104.90401,39.60917]}"
218,Bank of Choice,Greeley,Colorado,1311292800000,20110722,"Bank Midwest, N.A.",1070,329,1357420806903,1357421142554,1,-104.69446,40.42327,"{""type"":""Point"",""coordinates"":[-104.69446,40.42327]}"
219,Bank of the Commonwealth,Norfolk,Virginia,1316736000000,20110923,Southern Bank and Trust Company,985.1,330,1357420806903,1357421143349,1,-76.28506,36.84682,"{""type"":""Point"",""coordinates"":[-76.28506,36.84682]}"
220,Park Avenue Bank,Valdosta,Georgia,1304035200000,20110429,Bank of the Ozarks,953,332,1357420806903,1357421144894,1,-83.28092,30.83472,"{""type"":""Point"",""coordinates"":[-83.28092,30.83472]}"
221,Nexity Bank,Birmingham,Alabama,1302825600000,20110415,AloStar Bank of Commerce,793,333,1357420806903,1357421145701,1,-86.8115,33.52029,"{""type"":""Point"",""coordinates"":[-86.8115,33.52029]}"
222,Atlantic Southern Bank,Macon,Georgia,1305849600000,20110520,"CertusBank, NA",742,335,1357420806903,1357421147075,1,-83.62758,32.83968,"{""type"":""Point"",""coordinates"":[-83.62758,32.83968]}"
223,First Georgia Banking Company,Franklin,Georgia,1305849600000,20110520,"CertusBank, NA",731,336,1357420806903,1357421148052,1,-85.09881,33.27775,"{""type"":""Point"",""coordinates"":[-85.09881,33.27775]}"
224,First Commercial Bank of Florida,Orlando,Florida,1294358400000,20110107,First Southern Bank,599,338,1357420806903,1357421149750,1,-81.37739,28.53823,"{""type"":""Point"",""coordinates"":[-81.37739,28.53823]}"
225,Bank of Whitman,Colfax,Washington,1312502400000,20110805,Columbia State Bank,548.6,339,1357420806903,1357421150389,1,-117.36478,46.87941,"{""type"":""Point"",""coordinates"":[-117.36478,46.87941]}"
226,The First National Bank of Olathe,Olathe,Kansas,1313107200000,20110812,Enterprise Bank and Trust,538.1,340,1357420806903,1357421151284,1,-94.81887,38.88353,"{""type"":""Point"",""coordinates"":[-94.81887,38.88353]}"
227,The RiverBank,Wyoming,Minnesota,1317945600000,20111007,Central Bank,417.4,342,1357420806903,1357421157150,1,-92.99865,45.33645,"{""type"":""Point"",""coordinates"":[-92.99865,45.33645]}"
228,CommunitySouth Bank and Trust,Easley,South Carolina,1295568000000,20110121,"CertusBank, NA",402,343,1357420806903,1357421157957,1,-82.60039,34.83089,"{""type"":""Point"",""coordinates"":[-82.60039,34.83089]}"
229,Peoples State Bank,Hamtramck,Michigan,1297382400000,20110211,First Michigan Bank,391,344,1357420806903,1357421158568,1,-83.05173,42.39941,"{""type"":""Point"",""coordinates"":[-83.05173,42.39941]}"
230,Central Progressive Bank,Lacombe,Louisiana,1321574400000,20111118,First NBC Bank,383.1,346,1357420806903,1357421160106,1,-89.93911,30.31203,"{""type"":""Point"",""coordinates"":[-89.93911,30.31203]}"
231,SunFirst Bank,Saint George,Utah,1320364800000,20111104,Cache Valley Bank,376.2,347,1357420806903,1357421160743,1,-113.5833,37.10907,"{""type"":""Point"",""coordinates"":[-113.5833,37.10907]}"
232,First National Bank of Central Florida,Winter Park,Florida,1304035200000,20110429,Florida Community Bank,352,349,1357420806903,1357421162312,1,-81.35071,28.59457,"{""type"":""Point"",""coordinates"":[-81.35071,28.59457]}"
233,McIntosh State Bank,Jackson,Georgia,1308268800000,20110617,Hamilton Bank,339.9,350,1357420806903,1357421163181,1,-83966,33.2944,"{""type"":""Point"",""coordinates"":[-83.966,33.2944]}"
234,Bartow County Bank,Cartersville,Georgia,1302825600000,20110415,Hamilton State Bank,330,352,1357420806903,1357421164668,1,-84.7957,34.16517,"{""type"":""Point"",""coordinates"":[-84.7957,34.16517]}"
235,First Choice Community Bank,Dallas,Georgia,1304035200000,20110429,Bank of the Ozarks,309,353,1357420806903,1357421165676,1,-84.84153,33.92518,"{""type"":""Point"",""coordinates"":[-84.84153,33.92518]}"
236,Citizens Bank of Northern California,Nevada City,California,1316736000000,20110923,Tri Counties Bank,288.8,355,1357420806903,1357421167431,1,-121.01914,39.26271,"{""type"":""Point"",""coordinates"":[-121.01914,39.26271]}"
237,LandMark Bank of Florida,Sarasota,Florida,1311292800000,20110722,American Momentum Bank,275,356,1357420806903,1357421168600,1,-82.53963,27.33888,"{""type"":""Point"",""coordinates"":[-82.53963,27.33888]}"
238,First International Bank,Plano,Texas,1317340800000,20110930,American First National Bank,239.9,358,1357420806903,1357421170305,1,-96.69925,33.02079,"{""type"":""Point"",""coordinates"":[-96.69925,33.02079]}"
239,"BankMeridian, N.A.",Columbia,South Carolina,1311897600000,20110729,"SCBT, NA",239.8,359,1357420806903,1357421171205,1,-81.04537,33.99882,"{""type"":""Point"",""coordinates"":[-81.04537,33.99882]}"
240,Oglethorpe Bank,Brunswick,Georgia,1294963200000,20110114,Bank of the Ozarks,231,361,1357420806903,1357421173033,1,-81.49556,31.14974,"{""type"":""Point"",""coordinates"":[-81.49556,31.14974]}"
241,First Peoples Bank,Port St. Lucie,Florida,1310688000000,20110715,"Premier American Bank, N.A.",228.3,362,1357420806903,1357421174152,1,-80.36331,27.27418,"{""type"":""Point"",""coordinates"":[-80.36331,27.27418]}"
242,Old Harbor Bank,Clearwater,Florida,1319155200000,20111021,1st United Bank,215.9,364,1357420806903,1357421175876,1,-82.79975,27.96558,"{""type"":""Point"",""coordinates"":[-82.79975,27.96558]}"
243,Citizens Bank of Effingham,Springfield,Georgia,1297987200000,20110218,Heritage Bank of the South,214,365,1357420806903,1357421176706,1,-81.31343,32.37092,"{""type"":""Point"",""coordinates"":[-81.31343,32.37092]}"
244,Atlantic Bank and Trust,Charleston,South Carolina,1307059200000,20110603,First Citizens Bank and Trust Company,208,367,1357420806903,1357421178462,1,-79.9316,32.78115,"{""type"":""Point"",""coordinates"":[-79.9316,32.78115]}"
245,First State Bank,Cranford,New Jersey,1318550400000,20111014,"Northfield Bank (Staten Island, NY)",204.4,368,1357420806903,1357421179247,1,-74.30629,40656,"{""type"":""Point"",""coordinates"":[-74.30629,40.656]}"
246,Piedmont Community Bank,Gray,Georgia,1318550400000,20111014,State Bank and Trust Company,201.7,369,1357420806903,1357421180230,1,-83.53435,33.00944,"{""type"":""Point"",""coordinates"":[-83.53435,33.00944]}"
247,Decatur First Bank,Decatur,Georgia,1319155200000,20111021,Fidelity Bank,191.5,371,1357420806903,1357421181904,1,-84.29659,33.77402,"{""type"":""Point"",""coordinates"":[-84.29659,33.77402]}"
248,Country Bank,Aledo,Illinois,1318550400000,20111014,Blackhawk Bank & Trust,190.6,372,1357420806903,1357421182462,1,-90.74988,41.19993,"{""type"":""Point"",""coordinates"":[-90.74988,41.19993]}"
249,Bank of Asheville,Asheville,North Carolina,1295568000000,20110121,First Bank,188,374,1357420806903,1357421184160,1,-82.55314,35.59846,"{""type"":""Point"",""coordinates"":[-82.55314,35.59846]}"
250,One Georgia Bank,Atlanta,Georgia,1310688000000,20110715,Ameris Bank,186.3,375,1357420806903,1357421184784,1,-84.39111,33.74831,"{""type"":""Point"",""coordinates"":[-84.39111,33.74831]}"
251,First Heritage Bank,Snohomish,Washington,1306454400000,20110527,Columbia State Bank,174,378,1357420806903,1357421187161,1,-122.09306,47.9124,"{""type"":""Point"",""coordinates"":[-122.09306,47.9124]}"
252,Bank of Commerce,Wood Dale,Illinois,1301011200000,20110325,Advantage National Bank Group,163,380,1357420806903,1357421190904,1,-87.97882,41.96726,"{""type"":""Point"",""coordinates"":[-87.97882,41.96726]}"
253,Western National Bank,Phoenix,Arizona,1323993600000,20111216,Washington Federal,162.9,381,1357420806903,1357421192118,1,-112.07577,33.44826,"{""type"":""Point"",""coordinates"":[-112.07577,33.44826]}"
254,North Georgia Bank,Watkinsville,Georgia,1296777600000,20110204,BankSouth,153,383,1357420806903,1357421193877,1,-83.40927,33.86328,"{""type"":""Point"",""coordinates"":[-83.40927,33.86328]}"
255,Legacy Bank,Scottsdale,Arizona,1294358400000,20110107,Enterprise Bank and Trust,151,384,1357420806903,1357421194942,1,-111.92069,33494,"{""type"":""Point"",""coordinates"":[-111.92069,33.494]}"
256,Nevada Commerce Bank,Las Vegas,Nevada,1302480000000,20110411,City National Bank,144,386,1357420806903,1357421196384,1,-115.13997,36.17191,"{""type"":""Point"",""coordinates"":[-115.13997,36.17191]}"
257,Summit Bank,Burlington,Washington,1305849600000,20110520,Columbia State Bank,143,387,1357420806903,1357421197324,1,-122.33029,48.46846,"{""type"":""Point"",""coordinates"":[-122.33029,48.46846]}"
258,First Choice Bank,Geneva,Illinois,1313712000000,20110819,Inland Bank and Trust,141,388,1357420806903,1357421198190,1,-88.30522,41.88701,"{""type"":""Point"",""coordinates"":[-88.30522,41.88701]}"
259,Sunshine State Community Bank,Port Orange,Florida,1297382400000,20110211,"Premier American Bank, N.A.",126,390,1357420806903,1357421199655,1,-81.02063,29.12614,"{""type"":""Point"",""coordinates"":[-81.02063,29.12614]}"
260,Premier Community Bank of the Emerald Coast,Crestview,Florida,1323993600000,20111216,Summit Bank,126,391,1357420806903,1357421200696,1,-86.57102,30.76183,"{""type"":""Point"",""coordinates"":[-86.57102,30.76183]}"
261,Charter Oak Bank,Napa,California,1297987200000,20110218,Bank of Marin,121,393,1357420806903,1357421202774,1,-122.28522,38.29886,"{""type"":""Point"",""coordinates"":[-122.28522,38.29886]}"
262,Bank of Shorewood,Shorewood,Illinois,1312502400000,20110805,Heartland Bank and Trust Company,110.7,394,1357420806903,1357421203540,1,-88.20806,41.52145,"{""type"":""Point"",""coordinates"":[-88.20806,41.52145]}"
263,"Mid City Bank, Inc.",Omaha,Nebraska,1320364800000,20111104,Premier Bank,106.1,396,1357420806903,1357421205250,1,-95.94059,41.26069,"{""type"":""Point"",""coordinates"":[-95.94059,41.26069]}"
264,Mountain Heritage Bank,Clayton,Georgia,1308873600000,20110624,First American Bank and Trust Company,103.7,397,1357420806903,1357421206149,1,-84363,33.55634,"{""type"":""Point"",""coordinates"":[-84.363,33.55634]}"
265,CreekSide Bank,Woodstock,Georgia,1314921600000,20110902,Georgia Community Bank,102.3,398,1357420806903,1357421207005,1,-84.51879,34.10284,"{""type"":""Point"",""coordinates"":[-84.51879,34.10284]}"
266,Enterprise Banking Company,McDonough,Georgia,1295568000000,20110121,None (insured depositors paid directly),96,400,1357420806903,1357421208561,1,-84.14773,33.44774,"{""type"":""Point"",""coordinates"":[-84.14773,33.44774]}"
267,Virginia Business Bank,Richmond,Virginia,1311897600000,20110729,Xenith Bank,95.8,401,1357420806903,1357421209925,1,-77.43365,37.5407,"{""type"":""Point"",""coordinates"":[-77.43365,37.5407]}"
268,Badger State Bank,Cassville,Wisconsin,1297382400000,20110211,Royal Bank,84,404,1357420806903,1357421212471,1,-90.99023,42.71411,"{""type"":""Point"",""coordinates"":[-90.99023,42.71411]}"
269,Summit Bank,Prescott,Arizona,1310688000000,20110715,The Foothills Bank,72,405,1357420806903,1357421213612,1,-112.46873,34.54142,"{""type"":""Point"",""coordinates"":[-112.46873,34.54142]}"
270,Cortez Community Bank,Brooksville,Florida,1304035200000,20110429,Florida Community Bank,71,406,1357420806903,1357421214251,1,-82.38782,28.55451,"{""type"":""Point"",""coordinates"":[-82.38782,28.55451]}"
271,Signature Bank,Windsor,Colorado,1310083200000,20110708,Points West Community Bank,66.7,407,1357420806903,1357421215223,1,-104.90142,40.47852,"{""type"":""Point"",""coordinates"":[-104.90142,40.47852]}"
272,Community First Bank,Chicago,Illinois,1296777600000,20110204,Northbrook Bank and Trust,51,409,1357420806903,1357421216649,1,-87.63241,41.88415,"{""type"":""Point"",""coordinates"":[-87.63241,41.88415]}"
273,Public Savings Bank,Huntingdon Valley,Pennsylvania,1313625600000,20110818,"Capital Bank, N.A.",46.8,410,1357420806903,1357421217715,1,-75.06238,40.12684,"{""type"":""Point"",""coordinates"":[-75.06238,40.12684]}"
274,First State Bank,Camargo,Oklahoma,1296172800000,20110128,Bank 7,44,412,1357420806903,1357421219406,1,-99.28935,36.01691,"{""type"":""Point"",""coordinates"":[-99.28935,36.01691]}"
275,All American Bank,Des Plaines,Illinois,1319760000000,20111028,International Bank of Chicago,37.8,413,1357420806903,1357421220326,1,-87.88845,42042,"{""type"":""Point"",""coordinates"":[-87.88845,42.042]}"
276,Rosemount National Bank,Rosemount,Minnesota,1302825600000,20110415,Central Bank,37,414,1357420806903,1357421221861,1,-93.12429,44.73919,"{""type"":""Point"",""coordinates"":[-93.12429,44.73919]}"
277,Fidelity Bank,Dearborn,Michigan,1333065600000,20120330,Huntington National Bank,818.2,416,1357420806903,1357421224059,1,-83.17624,42.32209,"{""type"":""Point"",""coordinates"":[-83.17624,42.32209]}"
278,The First State Bank,Stockbridge,Georgia,1327017600000,20120120,Hamilton State Bank,536.9,417,1357420806903,1357421225258,1,-84.2277,33.54378,"{""type"":""Point"",""coordinates"":[-84.2277,33.54378]}"
279,Plantation Federal Bank,Pawleys Island,South Carolina,1335484800000,20120427,First Federal Bank,486.4,419,1357420806903,1357421226648,1,-79.12772,33.4385,"{""type"":""Point"",""coordinates"":[-79.12772,33.4385]}"
280,"Inter Savings Bank, FSB",Maple Grove,Minnesota,1335484800000,20120427,Great Southern Bank,481.6,420,1357420806903,1357421227471,1,-93.4431,45.09829,"{""type"":""Point"",""coordinates"":[-93.4431,45.09829]}"
281,First Guaranty Bank and Trust Company of Jacksonville,Jacksonville,Florida,1327622400000,20120127,CenterState Bank of Florida,377.9,422,1357420806903,1357421229096,1,-81.65622,30.33147,"{""type"":""Point"",""coordinates"":[-81.65622,30.33147]}"
282,Central Bank of Georgia,Ellaville,Georgia,1330041600000,20120224,Ameris Bank,278.9,423,1357420806903,1357421229805,1,-84.30858,32.23812,"{""type"":""Point"",""coordinates"":[-84.30858,32.23812]}"
283,Premier Bank,Wilmette,Illinois,1332460800000,20120323,International Bank of Chicago,268.7,425,1357420806903,1357421231727,1,-87.70771,42.07562,"{""type"":""Point"",""coordinates"":[-87.70771,42.07562]}"
284,Jasper Banking Company,Jasper,Georgia,1343347200000,20120727,"Stearns Bank, NA",216.7,427,1357420806903,1357421233576,1,-84.42696,34.46847,"{""type"":""Point"",""coordinates"":[-84.42696,34.46847]}"
285,SCB Bank,Shelbyville,Indiana,1328832000000,20120210,"First Merchants Bank, NA",182.6,429,1357420806903,1357421235062,1,-85.77702,39.5212,"{""type"":""Point"",""coordinates"":[-85.77702,39.5212]}"
286,Washington Mutual Bank,Seattle,Washington,1222300800000,20080925,JPMorgan Chase Bank,307000,1,1357420806903,1357420840746,1,-122.32944,47.60356,"{""type"":""Point"",""coordinates"":[-122.32944,47.60356]}"
287,Downey Savings and Loan,Newport Beach,California,1227225600000,20081121,"U.S. Bank, N.A.",12800,3,1357420806903,1357420842404,1,-117.93034,33.61683,"{""type"":""Point"",""coordinates"":[-117.93034,33.61683]}"
288,First National Bank of Nevada,Reno,Nevada,1216944000000,20080725,Mutual of Omaha Bank,3400,6,1357420806903,1357420845683,1,-119.81344,39.52738,"{""type"":""Point"",""coordinates"":[-119.81344,39.52738]}"
289,Integrity Bank,Alpharetta,Georgia,1219968000000,20080829,Regions Bank,1100,9,1357420806903,1357420848189,1,-84.29455,34.07537,"{""type"":""Point"",""coordinates"":[-84.29455,34.07537]}"
290,Haven Trust Bank,Duluth,Georgia,1229040000000,20081212,Branch Banking and Trust Company (BB&T),572,12,1357420806903,1357420850696,1,-84.14496,34.00336,"{""type"":""Point"",""coordinates"":[-84.14496,34.00336]}"
291,Freedom Bank,Bradenton,Florida,1225411200000,20081031,Fifth Third Bank,287,15,1357420806903,1357420853809,1,-82.57807,27.4955,"{""type"":""Point"",""coordinates"":[-82.57807,27.4955]}"
292,"First Heritage Bank, NA",Newport Beach,California,1216944000000,20080725,Mutual of Omaha Bank,254,17,1357420806903,1357420856847,1,-117.93034,33.61683,"{""type"":""Point"",""coordinates"":[-117.93034,33.61683]}"
293,Douglass National Bank,Kansas City,Missouri,1201219200000,20080125,Liberty Bank and Trust,58.5,21,1357420806903,1357420860136,1,-94.58306,39.10295,"{""type"":""Point"",""coordinates"":[-94.58306,39.10295]}"
294,Meridian Bank,Eldred,Illinois,1223596800000,20081010,National Bank,39.2,23,1357420806903,1357420861538,1,-90.55068,39.28828,"{""type"":""Point"",""coordinates"":[-90.55068,39.28828]}"
295,Colonial Bank,Montgomery,Alabama,1250208000000,20090814,Branch Banking and Trust (BB&T),25000,26,1357420806903,1357420864286,1,-86.30063,32.38012,"{""type"":""Point"",""coordinates"":[-86.30063,32.38012]}"
296,Guaranty Bank,Austin,Texas,1250812800000,20090821,BBVA Compass,13000,27,1357420806903,1357420866517,1,-97.74298,30.2676,"{""type"":""Point"",""coordinates"":[-97.74298,30.2676]}"
297,BankUnited FSB,Coral Gables,Florida,1242864000000,20090521,BankUnited,12800,28,1357420806903,1357420867135,1,-80.26295,25.74923,"{""type"":""Point"",""coordinates"":[-80.26295,25.74923]}"
298,California National Bank,Los Angeles,California,1256860800000,20091030,"U.S. Bank, N.A.",7800,31,1357420806903,1357420870541,1,-118.24532,34.05349,"{""type"":""Point"",""coordinates"":[-118.24532,34.05349]}"
299,"First Federal Bank of California, F.S.B.",Santa Monica,California,1261094400000,20091218,"OneWest Bank, FSB",6100,33,1357420806903,1357420872144,1,-118.49229,34.01156,"{""type"":""Point"",""coordinates"":[-118.49229,34.01156]}"
300,San Diego National Bank,San Diego,California,1256860800000,20091030,"U.S. Bank, N.A.",3600,37,1357420806903,1357420875236,1,-117.16172,32.71569,"{""type"":""Point"",""coordinates"":[-117.16172,32.71569]}"
301,Irwin Union Bank and Trust Company,Columbus,Indiana,1253232000000,20090918,"First Financial Bank, N.A.",2700,38,1357420806903,1357420877685,1,-85.91868,39.2015,"{""type"":""Point"",""coordinates"":[-85.91868,39.2015]}"
302,New Frontier Bank,Greeley,Colorado,1239321600000,20090410,None (Wound down by FDIC as receiver),2000,41,1357420806903,1357420880594,1,-104.69446,40.42327,"{""type"":""Point"",""coordinates"":[-104.69446,40.42327]}"
303,Peoples First Community Bank,Panama City,Florida,1261094400000,20091218,Hancock Bank,1800,44,1357420806903,1357420883711,1,-85.66033,30.15987,"{""type"":""Point"",""coordinates"":[-85.66033,30.15987]}"
304,First Bank of Beverly Hills,Calabasas,California,1240531200000,20090424,None (insured depositors paid directly),1500,47,1357420806903,1357420886359,1,-118.6938,34.15226,"{""type"":""Point"",""coordinates"":[-118.6938,34.15226]}"
305,Alliance Bank,Culver City,California,1233878400000,20090206,California Bank and Trust,1140,51,1357420806903,1357420890282,1,-118.39621,34.02161,"{""type"":""Point"",""coordinates"":[-118.39621,34.02161]}"
306,Bank of the Eastern Shore,Cambridge,Maryland,1335484800000,20120427,None (Wound down by FDIC as receiver),166.7,432,1357420806903,1357421238047,1,-76.07806,38.56312,"{""type"":""Point"",""coordinates"":[-76.07806,38.56312]}"
307,HarVest Bank of Maryland,Gaithersburg,Maryland,1335484800000,20120427,Sonabank,164.3,433,1357420806903,1357421238765,1,-77.19382,39.13986,"{""type"":""Point"",""coordinates"":[-77.19382,39.13986]}"
308,Security Exchange Bank,Marietta,Georgia,1339718400000,20120615,Fidelity Bank,151,435,1357420806903,1357421240777,1,-84.54588,33.95319,"{""type"":""Point"",""coordinates"":[-84.54588,33.95319]}"
309,Global Commerce Bank,Doraville,Georgia,1330646400000,20120302,Metro City Bank,143.7,436,1357420806903,1357421242091,1,-84279,33.90094,"{""type"":""Point"",""coordinates"":[-84.279,33.90094]}"
310,Palm Desert National Bank,Palm Desert,California,1335484800000,20120427,Pacific Premier,125.8,437,1357420806903,1357421243551,1,-116.38032,33.72891,"{""type"":""Point"",""coordinates"":[-116.38032,33.72891]}"
311,Patriot Bank Minnesota,Forest Lake,Minnesota,1327622400000,20120127,First Resource Bank,111.3,439,1357420806903,1357421246098,1,-92.9842,45.28191,"{""type"":""Point"",""coordinates"":[-92.9842,45.28191]}"
312,Heartland Bank,Leawood,Kansas,1342742400000,20120720,Metcalf Bank,110,440,1357420806903,1357421248105,1,-94.6413,38.91658,"{""type"":""Point"",""coordinates"":[-94.6413,38.91658]}"
313,Covenant Bank & Trust,Rock Spring,Georgia,1332460800000,20120323,"Stearns Bank, NA",95.7,442,1357420806903,1357421252297,1,-85.24069,34.82378,"{""type"":""Point"",""coordinates"":[-85.24069,34.82378]}"
314,Royal Palm Bank of Florida,Naples,Florida,1342742400000,20120720,First National Bank of the Gulf Coast,87,444,1357420806903,1357421254633,1,-81.79579,26.13909,"{""type"":""Point"",""coordinates"":[-81.79579,26.13909]}"
315,Central Florida State Bank,Belleview,Florida,1327017600000,20120120,CenterState Bank of Florida,79.1,445,1357420806903,1357421256192,1,-82.05919,29.05998,"{""type"":""Point"",""coordinates"":[-82.05919,29.05998]}"
316,New City Bank,Chicago,Illinois,1331251200000,20120309,None (Closed permanently by the FDIC),71.2,446,1357420806903,1357421257130,1,-87.63241,41.88415,"{""type"":""Point"",""coordinates"":[-87.63241,41.88415]}"
317,Carolina Federal Savings Bank,Charleston,South Carolina,1339113600000,20120608,Bank of North Carolina,54.4,447,1357420806903,1357421258729,1,-79.9316,32.78115,"{""type"":""Point"",""coordinates"":[-79.9316,32.78115]}"
318,"Alabama Trust Bank, NA",Sylacauga,Alabama,1337299200000,20120518,Southern States Bank,51.6,449,1357420806903,1357421260797,1,-86.25025,33.17156,"{""type"":""Point"",""coordinates"":[-86.25025,33.17156]}"
319,First Capital Bank,Kingfisher,Oklahoma,1339113600000,20120608,F & M Bank,46.1,450,1357420806903,1357421261954,1,-97.93266,35.86037,"{""type"":""Point"",""coordinates"":[-97.93266,35.86037]}"
320,Glasgow Savings Bank,Glasgow,Missouri,1342137600000,20120713,Regional Missouri Bank,24.8,452,1357420806903,1357421263810,1,-92.84693,39.22687,"{""type"":""Point"",""coordinates"":[-92.84693,39.22687]}"
321,American Eagle Savings Bank,Boothwyn,Pennsylvania,1327017600000,20120120,"Capital Bank, N.A.",19.6,453,1357420806903,1357421264657,1,-75.4409,39.82977,"{""type"":""Point"",""coordinates"":[-75.4409,39.82977]}"
322,Venture Bank,Lacey,Washington,1252627200000,20090911,First-Citizens Bank and Trust Company,970,54,1357420806903,1357420893488,1,-122.82322,47.04477,"{""type"":""Point"",""coordinates"":[-122.82322,47.04477]}"
323,The Buckhead Community Bank,Atlanta,Georgia,1259884800000,20091204,State Bank and Trust,874,57,1357420806903,1357420896228,1,-84.39111,33.74831,"{""type"":""Point"",""coordinates"":[-84.39111,33.74831]}"
324,1st Centennial Bank,Redlands,California,1232668800000,20090123,First California Bank,803.3,58,1357420806903,1357420896910,1,-117.18258,34.05528,"{""type"":""Point"",""coordinates"":[-117.18258,34.05528]}"
325,Peoples Community Bank,West Chester,Ohio,1248998400000,20090731,"First Financial Bank, N.A.",706,61,1357420806903,1357420899500,1,-81.3441,40.23323,"{""type"":""Point"",""coordinates"":[-81.3441,40.23323]}"
326,Riverside Bank of the Gulf Coast,Cape Coral,Florida,1234483200000,20090213,TIB Bank,539,65,1357420806903,1357420903022,1,-81.95694,26.62982,"{""type"":""Point"",""coordinates"":[-81.95694,26.62982]}"
327,SolutionsBank,Overland Park,Kansas,1260489600000,20091211,Arvest Bank,511,68,1357420806903,1357420905836,1,-94.67168,38.98489,"{""type"":""Point"",""coordinates"":[-94.67168,38.98489]}"
328,First Bank of Idaho,Ketchum,Idaho,1240531200000,20090424,"U.S. Bank, N.A.",488.9,71,1357420806903,1357420908611,1,-114.36368,43.68259,"{""type"":""Point"",""coordinates"":[-114.36368,43.68259]}"
329,Vantus Bank,Sioux City,Iowa,1252022400000,20090904,Great Southern Bank,458,74,1357420806903,1357420911315,1,-96.42094,42.49981,"{""type"":""Point"",""coordinates"":[-96.42094,42.49981]}"
330,Bradford Bank,Baltimore,Maryland,1251417600000,20090828,Manufacturers & Traders Trust Company,452,77,1357420806903,1357420914658,1,-76.60926,39.29058,"{""type"":""Point"",""coordinates"":[-76.60926,39.29058]}"
331,National Bank of Commerce,Berkeley,Illinois,1232064000000,20090116,Republic Bank of Chicago,430.9,81,1357420806903,1357420918650,1,-87.91397,41.88216,"{""type"":""Point"",""coordinates"":[-87.91397,41.88216]}"
332,Suburban FSB,Crofton,Maryland,1233273600000,20090130,Bank of Essex,360,84,1357420806903,1357420921176,1,-76.69084,39.01192,"{""type"":""Point"",""coordinates"":[-76.69084,39.01192]}"
333,Westsound Bank,Bremerton,Washington,1241740800000,20090508,Kitsap Bank,334.6,87,1357420806903,1357420923787,1,-122.62747,47565,"{""type"":""Point"",""coordinates"":[-122.62747,47.565]}"
334,Security Bank of Gwinnett County,Suwanee,Georgia,1248393600000,20090724,State Bank and Trust Company,322,90,1357420806903,1357420927143,1,-84.06533,34.05688,"{""type"":""Point"",""coordinates"":[-84.06533,34.05688]}"
335,RockBridge Commercial Bank,Atlanta,Georgia,1261094400000,20091218,None (insured depositors paid directly),294,93,1357420806903,1357420929316,1,-84.39111,33.74831,"{""type"":""Point"",""coordinates"":[-84.39111,33.74831]}"
336,Corn Belt Bank & Trust Co.,Pittsfield,Illinois,1234483200000,20090213,The Carlinville National Bank,271.8,97,1357420806903,1357420932155,1,-90.80534,39.60677,"{""type"":""Point"",""coordinates"":[-90.80534,39.60677]}"
337,Security Savings Bank,Henderson,Nevada,1235692800000,20090227,Bank of Nevada,238.3,100,1357420806903,1357420935156,1,-114.98109,36.03082,"{""type"":""Point"",""coordinates"":[-114.98109,36.03082]}"
338,Ocala National Bank,Ocala,Florida,1233273600000,20090130,"CenterState Bank of Florida, N.A.",223.5,103,1357420806903,1357420937565,1,-82.14039,29.18752,"{""type"":""Point"",""coordinates"":[-82.14039,29.18752]}"
339,"Bank USA, N.A.",Phoenix,Arizona,1256860800000,20091030,"U.S. Bank, N.A.",213,106,1357420806903,1357420940292,1,-112.07577,33.44826,"{""type"":""Point"",""coordinates"":[-112.07577,33.44826]}"
340,Community First Bank,Prineville,Oregon,1249603200000,20090807,Home Federal Bank,209,109,1357420806903,1357420942515,1,-120.84404,44.30292,"{""type"":""Point"",""coordinates"":[-120.84404,44.30292]}"
341,Greater Atlantic Bank,Reston,Virginia,1259884800000,20091204,Sonabank,203,110,1357420806903,1357420943264,1,-77.35457,38.95937,"{""type"":""Point"",""coordinates"":[-77.35457,38.95937]}"
342,Community Bank of West Georgia,Villa Rica,Georgia,1245974400000,20090626,None (insured depositors paid directly),199.4,112,1357420806903,1357420944722,1,-84.92013,33.73278,"{""type"":""Point"",""coordinates"":[-84.92013,33.73278]}"
343,American Sterling Bank,Sugar Creek,Missouri,1239926400000,20090417,Metcalf Bank,181,115,1357420806903,1357420947170,1,-94.44468,39.11373,"{""type"":""Point"",""coordinates"":[-94.44468,39.11373]}"
344,Citizens State Bank,New Baltimore,Michigan,1261094400000,20091218,None (insured depositors paid directly),169,118,1357420806903,1357420949792,1,-82.7353,42.68221,"{""type"":""Point"",""coordinates"":[-82.7353,42.68221]}"
345,United Security Bank,Sparta,Georgia,1257465600000,20091106,Ameris Bank,157,123,1357420806903,1357420954098,1,-82.97643,33.27636,"{""type"":""Point"",""coordinates"":[-82.97643,33.27636]}"
346,ebank,Atlanta,Georgia,1250812800000,20090821,"Stearns Bank, N.A.",143,126,1357420806903,1357420957092,1,-84.39111,33.74831,"{""type"":""Point"",""coordinates"":[-84.39111,33.74831]}"
347,Sherman County Bank,Loup City,Nebraska,1234483200000,20090213,Heritage Bank,129.8,129,1357420806903,1357420959159,1,-98.96948,41.27474,"{""type"":""Point"",""coordinates"":[-98.96948,41.27474]}"
348,Colorado National Bank,Colorado Springs,Colorado,1237507200000,20090320,Herring Bank,123.9,132,1357420806903,1357420962299,1,-104.82181,38.83345,"{""type"":""Point"",""coordinates"":[-104.82181,38.83345]}"
349,Citizens National Bank,Teague,Texas,1256860800000,20091030,"U.S. Bank, N.A.",118,135,1357420806903,1357420965222,1,-96284,31.62769,"{""type"":""Point"",""coordinates"":[-96.284,31.62769]}"
350,American United Bank,Lawrenceville,Georgia,1256256000000,20091023,Ameris Bank,111,138,1357420806903,1357420967803,1,-83.98799,33.95246,"{""type"":""Point"",""coordinates"":[-83.98799,33.95246]}"
351,First State Bank of Altus,Altus,Oklahoma,1248998400000,20090731,Herring Bank,103,141,1357420806903,1357420970169,1,-99.33326,34.63783,"{""type"":""Point"",""coordinates"":[-99.33326,34.63783]}"
352,Hillcrest Bank Florida,Naples,Florida,1256256000000,20091023,"Hillcrest Bank, N.A.",83,144,1357420806903,1357420972899,1,-81.79579,26.13909,"{""type"":""Point"",""coordinates"":[-81.79579,26.13909]}"
353,Commerce Bank of Southwest Florida,Fort Myers,Florida,1258675200000,20091120,Central Bank,80,147,1357420806903,1357420975205,1,-81.86819,26.64084,"{""type"":""Point"",""coordinates"":[-81.86819,26.64084]}"
354,Brickwell Community Bank,Woodbury,Minnesota,1252627200000,20090911,"CorTrust Bank, N.A.",72,150,1357420806903,1357420977816,1,-92.94061,44.91987,"{""type"":""Point"",""coordinates"":[-92.94061,44.91987]}"
355,Waterford Village Bank,Williamsville,New York,1248393600000,20090724,"Evans Bank, N.A.",61,154,1357420806903,1357420980950,1,-78.7449,42.96285,"{""type"":""Point"",""coordinates"":[-78.7449,42.96285]}"
356,Elizabeth State Bank,Elizabeth,Illinois,1246492800000,20090702,Galena State Bank and Trust Company,56,155,1357420806903,1357420981866,1,-90.22382,42.31865,"{""type"":""Point"",""coordinates"":[-90.22382,42.31865]}"
357,"Valley Capital Bank, N.A.",Mesa,Arizona,1260489600000,20091211,Enterprise Bank and Trust,40,160,1357420806903,1357420985863,1,-111.83146,33.41704,"{""type"":""Point"",""coordinates"":[-111.83146,33.41704]}"
358,Home Federal Savings Bank,Detroit,Michigan,1257465600000,20091106,Liberty Bank and Trust Company,15,164,1357420806903,1357420991316,1,-83.04792,42.33168,"{""type"":""Point"",""coordinates"":[-83.04792,42.33168]}"
359,Westernbank Puerto Rico,Mayaguez,Puerto Rico,1272585600000,20100430,Banco Popular de Puerto Rico,11940,166,1357420806903,1357420992624,1,-67.1469,18.20368,"{""type"":""Point"",""coordinates"":[-67.1469,18.20368]}"
360,Riverside National Bank of Florida,Fort Pierce,Florida,1271376000000,20100416,"TD Bank, N.A.",3420,170,1357420806903,1357420996728,1,-80.32661,27.44865,"{""type"":""Point"",""coordinates"":[-80.32661,27.44865]}"
361,TierOne Bank,Lincoln,Nebraska,1275609600000,20100604,Great Western Bank,2800,173,1357420806903,1357420999476,1,-96.70774,40.81362,"{""type"":""Point"",""coordinates"":[-96.70774,40.81362]}"
362,ShoreBank,Chicago,Illinois,1282262400000,20100820,Urban Partnership Bank,2160,176,1357420806903,1357421001968,1,-87.63241,41.88415,"{""type"":""Point"",""coordinates"":[-87.63241,41.88415]}"
363,Hillcrest Bank,Overland Park,Kansas,1287705600000,20101022,"Hillcrest Bank, N.A.",1600,179,1357420806903,1357421004307,1,-94.67168,38.98489,"{""type"":""Point"",""coordinates"":[-94.67168,38.98489]}"
364,Charter Bank,Sante Fe,New Mexico,1264118400000,20100122,Charter Bank,1200,182,1357420806903,1357421006647,1,-105.93796,35.69168,"{""type"":""Point"",""coordinates"":[-105.93796,35.69168]}"
365,City Bank,Lynnwood,Washington,1271376000000,20100416,Whidbey Island Bank,1130,185,1357420806903,1357421009459,1,-122.29244,47.82532,"{""type"":""Point"",""coordinates"":[-122.29244,47.82532]}"
366,Crescent Bank and Trust Co,Jasper,Georgia,1279843200000,20100723,Renasant Bank,1000,188,1357420806903,1357421012190,1,-84.42696,34.46847,"{""type"":""Point"",""coordinates"":[-84.42696,34.46847]}"
367,First National Bank of Georgia,Carrollton,Georgia,1264723200000,20100129,Community and Southern Bank,833,191,1357420806903,1357421014167,1,-85.07841,33.5813,"{""type"":""Point"",""coordinates"":[-85.07841,33.5813]}"
368,Rainier Pacific Bank,Tacoma,Washington,1267142400000,20100226,Umpqua Bank,718,195,1357420806903,1357421017219,1,-122.44165,47.25513,"{""type"":""Point"",""coordinates"":[-122.44165,47.25513]}"
369,Darby Bank & Trust,Vidalia,Georgia,1289520000000,20101112,Ameris Bank,655,197,1357420806903,1357421018685,1,-82.41242,32.21727,"{""type"":""Point"",""coordinates"":[-82.41242,32.21727]}"
370,Bank of Florida-Southeast,Fort Lauderdale,Florida,1275004800000,20100528,EverBank,595,201,1357420806903,1357421022368,1,-80.14356,26.12367,"{""type"":""Point"",""coordinates"":[-80.14356,26.12367]}"
371,K Bank,Randallstown,Maryland,1288915200000,20101105,Manufacturers and Traders Trust Company,538,204,1357420806903,1357421029095,1,-76.78264,39.36284,"{""type"":""Point"",""coordinates"":[-76.78264,39.36284]}"
372,Washington First International Bank,Seattle,Washington,1276214400000,20100611,East West Bank,521,207,1357420806903,1357421033607,1,-122.32944,47.60356,"{""type"":""Point"",""coordinates"":[-122.32944,47.60356]}"
373,Butte Community Bank,Chico,California,1282262400000,20100820,"Rabobbank, N.A.",499,210,1357420806903,1357421036911,1,-121.84198,39732,"{""type"":""Point"",""coordinates"":[-121.84198,39.732]}"
374,Evergreen Bank,Seattle,Washington,1264118400000,20100122,Umpqua Bank,489,213,1357420806903,1357421039342,1,-122.32944,47.60356,"{""type"":""Point"",""coordinates"":[-122.32944,47.60356]}"
375,"The Bank of Miami, N.A.",Coral Gables,Florida,1292544000000,20101217,1st United Bank,448,216,1357420806903,1357421041615,1,-80.26295,25.74923,"{""type"":""Point"",""coordinates"":[-80.26295,25.74923]}"
376,Peoples Bank,Winder,Georgia,1284681600000,20100917,Community and Southern Bank,447,217,1357420806903,1357421042486,1,-83.72249,33.99121,"{""type"":""Point"",""coordinates"":[-83.72249,33.99121]}"
377,Wheatland Bank,Naperville,Illinois,1271980800000,20100423,Wheaton Bank and Trust,437,219,1357420806903,1357421044109,1,-88.15302,41.77053,"{""type"":""Point"",""coordinates"":[-88.15302,41.77053]}"
378,First Federal Bank of North Florida,Palatka,Florida,1271376000000,20100416,"TD Bank, N.A.",393,223,1357420806903,1357421050404,1,-81.63703,29.64853,"{""type"":""Point"",""coordinates"":[-81.63703,29.64853]}"
379,American Marine Bank,Bainbridge Island,Washington,1264723200000,20100129,Columbia State Bank,373,226,1357420806903,1357421053403,1,-122521,47.62693,"{""type"":""Point"",""coordinates"":[-122.521,47.62693]}"
380,Sun West Bank,Las Vegas,Nevada,1275004800000,20100528,City National Bank,361,229,1357420806903,1357421056678,1,-115.13997,36.17191,"{""type"":""Point"",""coordinates"":[-115.13997,36.17191]}"
381,Sonoma Valley Bank,Sonoma,California,1282262400000,20100820,Westamerica Bank,337,232,1357420806903,1357421059067,1,-122.45725,38.29188,"{""type"":""Point"",""coordinates"":[-122.45725,38.29188]}"
382,Pacific State Bank,Stockton,California,1282262400000,20100820,"Rabobbank, N.A.",312,235,1357420806903,1357421062486,1,-121.29075,37.95367,"{""type"":""Point"",""coordinates"":[-121.29075,37.95367]}"
383,Bay National Bank,Baltimore,Maryland,1278633600000,20100709,"Bay Bank, FSB",282,238,1357420806903,1357421065184,1,-76.60926,39.29058,"{""type"":""Point"",""coordinates"":[-76.60926,39.29058]}"
384,First Arizona Savings,Scottsdale,Arizona,1287705600000,20101022,None (insured depositors paid directly),272,239,1357420806903,1357421065896,1,-111.92069,33494,"{""type"":""Point"",""coordinates"":[-111.92069,33.494]}"
385,Ravenswood Bank,Chicago,Illinois,1281052800000,20100806,Northbrook Bank and Trust Company,265,242,1357420806903,1357421070167,1,-87.63241,41.88415,"{""type"":""Point"",""coordinates"":[-87.63241,41.88415]}"
386,Home Valley Bank,Cave Junction,Oregon,1279843200000,20100723,South Valley Bank and Trust,252,246,1357420806903,1357421073710,1,-123.64676,42.16348,"{""type"":""Point"",""coordinates"":[-123.64676,42.16348]}"
387,Chestatee State Bank,Dawsonville,Georgia,1292544000000,20101217,Bank of the Ozarks,244,249,1357420806903,1357421076469,1,-84.11694,34.42127,"{""type"":""Point"",""coordinates"":[-84.11694,34.42127]}"
388,Statewide Bank,Covington,Louisiana,1268352000000,20100312,Home Bank,243,250,1357420806903,1357421077168,1,-90.0953,30.47968,"{""type"":""Point"",""coordinates"":[-90.0953,30.47968]}"
389,Bank of Illinois,Normal,Illinois,1267747200000,20100305,Heartland Bank and Trust Company,212,255,1357420806903,1357421081479,1,-88.99414,40.51082,"{""type"":""Point"",""coordinates"":[-88.99414,40.51082]}"
390,Lincoln Park Saving Bank,Chicago,Illinois,1271980800000,20100423,Northbrook Bank and Trust Company,200,258,1357420806903,1357421085104,1,-87.63241,41.88415,"{""type"":""Point"",""coordinates"":[-87.63241,41.88415]}"
391,Champion Bank,Creve Coeur,Missouri,1272585600000,20100430,BankLiberty,187,262,1357420806903,1357421088557,1,-90.44325,38.66253,"{""type"":""Point"",""coordinates"":[-90.44325,38.66253]}"
392,NorthWest Bank and Trust,Acworth,Georgia,1280448000000,20100730,State Bank and Trust Company,168,265,1357420806903,1357421090316,1,-84.6774,34.06543,"{""type"":""Point"",""coordinates"":[-84.6774,34.06543]}"
393,Haven Trust Bank Florida,Ponte Vedra Beach,Florida,1285286400000,20100924,First Southern Bank,149,269,1357420806903,1357421093565,1,-81.38597,30.22576,"{""type"":""Point"",""coordinates"":[-81.38597,30.22576]}"
394,Tifton Banking Company,Tifton,Georgia,1289520000000,20101112,Ameris Bank,144,271,1357420806903,1357421095028,1,-83.50932,31.45138,"{""type"":""Point"",""coordinates"":[-83.50932,31.45138]}"
395,Williamsburg First National Bank,Kingstree,South Carolina,1279843200000,20100723,First Citizens Bank and Trust Company,139,272,1357420806903,1357421095886,1,-79.82896,33.66413,"{""type"":""Point"",""coordinates"":[-79.82896,33.66413]}"
396,First National Bank of Barnesville,Barnesville,Georgia,1287705600000,20101022,United Bank,131,275,1357420806903,1357421098041,1,-84.15284,33.05456,"{""type"":""Point"",""coordinates"":[-84.15284,33.05456]}"
397,Towne Bank of Arizona,Mesa,Arizona,1273190400000,20100507,Commerce Bank of Arizona,120,278,1357420806903,1357421100357,1,-111.83146,33.41704,"{""type"":""Point"",""coordinates"":[-111.83146,33.41704]}"
398,New Liberty Bank,Plymouth,Michigan,1273795200000,20100514,Bank of Ann Arbor,109,282,1357420806903,1357421103721,1,-83.46792,42.37199,"{""type"":""Point"",""coordinates"":[-83.46792,42.37199]}"
399,Allegiance Bank of North America,Bala Cynwyd,Pennsylvania,1290124800000,20101119,VIST Bank,106,284,1357420806903,1357421105217,1,-75.24013,40.00406,"{""type"":""Point"",""coordinates"":[-75.24013,40.00406]}"
400,Century Security Bank,Duluth,Georgia,1268956800000,20100319,Bank of Upson,97,288,1357420806903,1357421108367,1,-84.14496,34.00336,"{""type"":""Point"",""coordinates"":[-84.14496,34.00336]}"
401,WestBridge Bank and Trust Company,Chesterfield,Missouri,1287100800000,20101015,Midland State Bank,92,291,1357420806903,1357421110739,1,-90.55428,38.6538,"{""type"":""Point"",""coordinates"":[-90.55428,38.6538]}"
402,High Desert State Bank,Albuquerque,New Mexico,1277424000000,20100625,First American Bank,81,295,1357420806903,1357421114634,1,-106.64864,35.08418,"{""type"":""Point"",""coordinates"":[-106.64864,35.08418]}"
403,Citizens Bank and Trust Company of Chicago,Chicago,Illinois,1271980800000,20100423,Republic Bank of Chicago,77,297,1357420806903,1357421116339,1,-87.63241,41.88415,"{""type"":""Point"",""coordinates"":[-87.63241,41.88415]}"
404,Appalachian Community Bank,McCaysville,Georgia,1292544000000,20101217,Peoples Bank of East Tennessee,68,301,1357420806903,1357421119468,1,-84.37041,34.98763,"{""type"":""Point"",""coordinates"":[-84.37041,34.98763]}"
405,"Marshall Bank, N.A.",Hallock,Minnesota,1264723200000,20100129,United Valley Bank,60,305,1357420806903,1357421122854,1,-96.94588,48.77545,"{""type"":""Point"",""coordinates"":[-96.94588,48.77545]}"
406,The La Coste National Bank,La Coste,Texas,1266537600000,20100219,Community National Bank,54,307,1357420806903,1357421124400,1,-98.81417,29.30998,"{""type"":""Point"",""coordinates"":[-98.81417,29.30998]}"
407,First Vietnamese American Bank,Westminster,California,1288915200000,20101105,Grandpoint Bank,48,311,1357420806903,1357421127316,1,-117.9865,33.7593,"{""type"":""Point"",""coordinates"":[-117.9865,33.7593]}"
408,Gordon Bank,Gordon,Georgia,1287705600000,20101022,Morris Bank,29,314,1357420806903,1357421129808,1,-83.34286,32.88318,"{""type"":""Point"",""coordinates"":[-83.34286,32.88318]}"
409,St. Stephen State Bank,St. Stephen,Minnesota,1263513600000,20100115,First State Bank of St. Joseph,25,317,1357420806903,1357421132308,1,-94.27457,45.7043,"{""type"":""Point"",""coordinates"":[-94.27457,45.7043]}"
410,Arcola Homestead Savings Bank,Arcola,Illinois,1275609600000,20100604,None (insured depositors paid directly),17,320,1357420806903,1357421134733,1,-88.30929,39.68266,"{""type"":""Point"",""coordinates"":[-88.30929,39.68266]}"
411,First Community Bank,Taos,New Mexico,1296172800000,20110128,"U.S. Bank, N.A.",2300,324,1357420806903,1357421138857,1,-105.57425,36.4116,"{""type"":""Point"",""coordinates"":[-105.57425,36.4116]}"
412,"Integra Bank, NA",Evansville,Indiana,1311897600000,20110729,Old National Bank,2200,325,1357420806903,1357421139640,1,-87.56412,37.97691,"{""type"":""Point"",""coordinates"":[-87.56412,37.97691]}"
413,United Western Bank,Denver,Colorado,1295568000000,20110121,First-Citizens Bank and Trust Company,1650,327,1357420806903,1357421141030,1,-104.9923,39.74001,"{""type"":""Point"",""coordinates"":[-104.9923,39.74001]}"
414,First Chicago Bank & Trust,Chicago,Illinois,1310083200000,20110708,Northbrook Bank and Trust Company,959.3,331,1357420806903,1357421144036,1,-87.63241,41.88415,"{""type"":""Point"",""coordinates"":[-87.63241,41.88415]}"
415,FirsTier Bank,Louisville,Colorado,1296172800000,20110128,None (insured depositors paid directly),782,334,1357420806903,1357421146467,1,-105.13212,39.97729,"{""type"":""Point"",""coordinates"":[-105.13212,39.97729]}"
416,Colorado Capital Bank,Castle Rock,Colorado,1310083200000,20110708,First-Citizens Bank and Trust Company,717.5,337,1357420806903,1357421149056,1,-104.85996,39.37591,"{""type"":""Point"",""coordinates"":[-104.85996,39.37591]}"
417,Community Central Bank,Mount Clemens,Michigan,1304035200000,20110429,Talmer Bank and Trust,476,341,1357420806903,1357421154069,1,-82.87741,42.5966,"{""type"":""Point"",""coordinates"":[-82.87741,42.5966]}"
418,Habersham Bank,Clarkesville,Georgia,1297987200000,20110218,"SCBT, NA",387,345,1357420806903,1357421159360,1,-83.52192,34.60863,"{""type"":""Point"",""coordinates"":[-83.52192,34.60863]}"
419,Sun Security Bank,Ellington,Missouri,1317945600000,20111007,Great Southern Bank,355.9,348,1357420806903,1357421161538,1,-90.96767,37.24209,"{""type"":""Point"",""coordinates"":[-90.96767,37.24209]}"
420,"San Luis Trust Bank, FSB",San Luis Obispo,California,1297987200000,20110218,First California Bank,333,351,1357420806903,1357421164119,1,-120.66252,35.28552,"{""type"":""Point"",""coordinates"":[-120.66252,35.28552]}"
421,First National Bank of Florida,Milton,Florida,1315526400000,20110909,Charter Bank,296.8,354,1357420806903,1357421166532,1,-87.03815,30.6336,"{""type"":""Point"",""coordinates"":[-87.03815,30.6336]}"
422,Evergreen State Bank,Stoughton,Wisconsin,1296172800000,20110128,McFarland State Bank,247,357,1357420806903,1357421169394,1,-89.21729,42.91675,"{""type"":""Point"",""coordinates"":[-89.21729,42.91675]}"
423,American Trust Bank,Roswell,Georgia,1296777600000,20110204,Renasant Bank,238,360,1357420806903,1357421172097,1,-84.3603,34.02166,"{""type"":""Point"",""coordinates"":[-84.3603,34.02166]}"
424,Heritage Banking Group,Carthage,Mississippi,1302825600000,20110415,TrustMark National Bank,224,363,1357420806903,1357421174922,1,-89.53803,32.74551,"{""type"":""Point"",""coordinates"":[-89.53803,32.74551]}"
425,Canyon National Bank,Palm Springs,California,1297382400000,20110211,Pacific Premier Bank,211,366,1357420806903,1357421177416,1,-116.51211,33.82321,"{""type"":""Point"",""coordinates"":[-116.51211,33.82321]}"
426,High Trust Bank,Stockbridge,Georgia,1310688000000,20110715,Ameris Bank,192.5,370,1357420806903,1357421181055,1,-84.2277,33.54378,"{""type"":""Point"",""coordinates"":[-84.2277,33.54378]}"
427,Legacy Bank,Milwaukee,Wisconsin,1299801600000,20110311,Seaway Bank and Trust Company,190,373,1357420806903,1357421183311,1,-87.90684,43.04181,"{""type"":""Point"",""coordinates"":[-87.90684,43.04181]}"
428,Western Springs National Bank and Trust,Western Springs,Illinois,1302480000000,20110411,Heartland Bank and Trust Company,186,376,1357420806903,1357421185476,1,-87.89808,41.81001,"{""type"":""Point"",""coordinates"":[-87.89808,41.81001]}"
429,Community Capital Bank,Jonesboro,Georgia,1319155200000,20111021,State Bank and Trust Company,181.2,377,1357420806903,1357421186378,1,-84.35407,33.52198,"{""type"":""Point"",""coordinates"":[-84.35407,33.52198]}"
430,First Southern National Bank,Statesboro,Georgia,1313712000000,20110819,Heritage Bank of the South,164.6,379,1357420806903,1357421188598,1,-81.78333,32.44891,"{""type"":""Point"",""coordinates"":[-81.78333,32.44891]}"
431,Blue Ridge Savings Bank,Asheville,North Carolina,1318550400000,20111014,Bank of North Carolina,161,382,1357420806903,1357421193077,1,-82.55314,35.59846,"{""type"":""Point"",""coordinates"":[-82.55314,35.59846]}"
432,Patriot Bank of Georgia,Cumming,Georgia,1314921600000,20110902,Georgia Commerce Bank,150.8,385,1357420806903,1357421195683,1,-84.13994,34.20357,"{""type"":""Point"",""coordinates"":[-84.13994,34.20357]}"
433,Coastal Bank,Cocoa Beach,Florida,1304640000000,20110506,Florida Community Bank,129,389,1357420806903,1357421198922,1,-80.61007,28.3175,"{""type"":""Point"",""coordinates"":[-80.61007,28.3175]}"
434,Valley Community Bank,St. Charles,Illinois,1298592000000,20110225,First State Bank,123,392,1357420806903,1357421201980,1,-88.31284,41.91376,"{""type"":""Point"",""coordinates"":[-88.31284,41.91376]}"
435,New Horizons Bank,East Ellijay,Georgia,1302825600000,20110415,Citizens South Bank,110,395,1357420806903,1357421204390,1,-84.47375,34.68551,"{""type"":""Point"",""coordinates"":[-84.47375,34.68551]}"
436,First Commercial Bank of Tampa Bay,Tampa,Florida,1308268800000,20110617,Stonegate Bank,98.6,399,1357420806903,1357421207748,1,-82.45927,27.94653,"{""type"":""Point"",""coordinates"":[-82.45927,27.94653]}"
437,Polk County Bank,Johnston,Iowa,1321574400000,20111118,Grinnell State Bank,91.6,402,1357420806903,1357421210821,1,-93.71218,41.67212,"{""type"":""Point"",""coordinates"":[-93.71218,41.67212]}"
438,First National Bank of Davis,Davis,Oklahoma,1299801600000,20110311,The Pauls Valley National Bank,90,403,1357420806903,1357421211763,1,-97.11978,34.50503,"{""type"":""Point"",""coordinates"":[-97.11978,34.50503]}"
439,Community Bank of Rockmart,Rockmart,Georgia,1320883200000,20111110,Century Bank of Georgia,62.4,408,1357420806903,1357421215885,1,-85.0414,34.0032,"{""type"":""Point"",""coordinates"":[-85.0414,34.0032]}"
440,Southshore Community Bank,Apollo Beach,Florida,1311292800000,20110722,American Momentum Bank,46.3,411,1357420806903,1357421218614,1,-82.39254,27.76907,"{""type"":""Point"",""coordinates"":[-82.39254,27.76907]}"
441,Tennessee Commerce Bank,Franklin,Tennessee,1327622400000,20120127,Republic Bank & Trust Company,1185,415,1357420806903,1357421223046,1,-86.87093,35.92425,"{""type"":""Point"",""coordinates"":[-86.87093,35.92425]}"
442,Waccamaw Bank,Whiteville,North Carolina,1339113600000,20120608,First Community Bank,533.1,418,1357420806903,1357421226085,1,-78.70314,34.34101,"{""type"":""Point"",""coordinates"":[-78.70314,34.34101]}"
443,Home Savings of America,Little Falls,Minnesota,1330041600000,20120224,None (Closed permanently by the FDIC),434.1,421,1357420806903,1357421228114,1,-94.3708,45.97718,"{""type"":""Point"",""coordinates"":[-94.3708,45.97718]}"
444,First Cherokee State Bank,Woodstock,Georgia,1342742400000,20120720,Community & Southern Bank,222.7,426,1357420806903,1357421232535,1,-84.51879,34.10284,"{""type"":""Point"",""coordinates"":[-84.51879,34.10284]}"
445,Second Federal Savings and Loan Association of Chicago,Chicago,Illinois,1342742400000,20120720,Hinsdale Bank & Trust Company,199.1,428,1357420806903,1357421234256,1,-87.63241,41.88415,"{""type"":""Point"",""coordinates"":[-87.63241,41.88415]}"
446,Montgomery Bank and Trust,Ailey,Georgia,1341532800000,20120706,Ameris,173.6,430,1357420806903,1357421235732,1,-82.5663,32.18726,"{""type"":""Point"",""coordinates"":[-82.5663,32.18726]}"
447,Putnam State Bank,Palatka,Florida,1339718400000,20120615,Harbor Community Bank,169.5,431,1357420806903,1357421237045,1,-81.63703,29.64853,"{""type"":""Point"",""coordinates"":[-81.63703,29.64853]}"
448,The Farmers Bank of Lynchburg,Lynchburg,Tennessee,1339718400000,20120615,Clayton Bank and Trust,163.9,434,1357420806903,1357421239698,1,-86.37393,35.28345,"{""type"":""Point"",""coordinates"":[-86.37393,35.28345]}"
449,Georgia Trust Bank,Buford,Georgia,1342742400000,20120720,Community & Southern Bank,119.8,438,1357420806903,1357421244830,1,-84006,34.11926,"{""type"":""Point"",""coordinates"":[-84.006,34.11926]}"
450,"Security Bank, NA",North Lauderdale,Florida,1336089600000,20120504,Banesco,101,441,1357420806903,1357421250553,1,-80.22059,26.22219,"{""type"":""Point"",""coordinates"":[-80.22059,26.22219]}"
451,Charter National Bank and Trust,Hoffman Estates,Illinois,1328832000000,20120210,"Barrington Bank & Trust Company, NA",93.9,443,1357420806903,1357421253450,1,-88.12374,42.06281,"{""type"":""Point"",""coordinates"":[-88.12374,42.06281]}"
452,"Fort Lee Federal Savings Bank, FSB",Fort Lee,New Jersey,1334880000000,20120420,Alma Bank,51.9,448,1357420806903,1357421259819,1,-73.97335,40.85277,"{""type"":""Point"",""coordinates"":[-73.97335,40.85277]}"
453,Farmers and Traders State Bank,Shabbona,Illinois,1339113600000,20120608,First State Bank,43.1,451,1357420806903,1357421263117,1,-88.8729,41.76799,"{""type"":""Point"",""coordinates"":[-88.8729,41.76799]}"
